Airport Name,City,Country,IATA Code,ICAO Code,Latitude,Longitude,Altitude,UTC TimeZone,DST,Continent/State
Zephyrhills Municipal Airport,Zephyrhills,United States,ZPH,KZPH,28.2282009,-82.155899,90,-5,A,America/New_York
Zelienople Municipal Airport,Zelienople,United States,\N,KPJC,40.8016014,-80.1606979,898,-5,A,America/New_York
Zanesville Municipal Airport,Zanesville,United States,ZZV,KZZV,39.9444008,-81.8920975,900,\N,\N,\N
Zamperini Field,Torrance,United States,TOA,KTOA,33.8033981,-118.339996,103,-8,A,America/Los_Angeles
Yuma MCAS/Yuma International Airport,Yuma,United States,YUM,KNYL,32.656601,-114.606003,213,-7,N,America/Phoenix
Yuba County Airport,Yuba City,United States,MYV,KMYV,39.0978012,-121.57,64,-8,A,America/Los_Angeles
Youngstown Warren Regional Airport,Youngstown,United States,YNG,KYNG,41.2607002,-80.6791,1192,-5,A,America/New_York
Yolo County Davis Woodland Winters Airport,Davis-Woodland-Winters,United States,\N,KDWA,38.5791016,-121.857002,100,-8,A,America/Los_Angeles
Yellowstone Regional Airport,Cody,United States,COD,KCOD,44.5201988,-109.024002,5102,-7,A,America/Denver
Yellowstone Airport,West Yellowstone,United States,WYS,KWYS,44.6884003,-111.117996,6649,-7,A,America/Denver
Yeager Airport,Charleston,United States,CRW,KCRW,38.3731003,-81.5932007,981,-5,A,America/New_York
Yampa Valley Airport,Hayden,United States,HDN,KHDN,40.4812012,-107.218002,6606,-7,A,America/Denver
Yakutat Airport,Yakutat,United States,YAK,PAYA,59.5032997,-139.660004,33,-9,A,America/Anchorage
Yakima Air Terminal McAllister Field,Yakima,United States,YKM,KYKM,46.5681992,-120.543999,1099,-8,A,America/Los_Angeles
Yakataga Airport,Yakataga,United States,CYT,PACY,60.080974,-142.494541,12,-9,A,America/Anchorage
Wright-Patterson Air Force Base,Dayton,United States,FFO,KFFO,39.8260994,-84.0483017,823,-5,A,America/New_York
Wright AAF (Fort Stewart)/Midcoast Regional Airport,Wright,United States,LIY,KLHW,31.889099,-81.562303,45,-5,A,America/New_York
Wrangell Airport,Wrangell,United States,WRG,PAWG,56.4842987,-132.369995,49,-9,A,America/Anchorage
Worland Municipal Airport,Worland,United States,WRL,KWRL,43.9656982,-107.950996,4227,-7,A,America/Denver
Worcester Regional Airport,Worcester,United States,ORH,KORH,42.2672997,-71.8757019,1009,-5,A,America/New_York
Woodward Field,Camden,United States,CDN,KCDN,34.2835999,-80.5649033,302,-5,A,America/New_York
Wokal Field Glasgow International Airport,Glasgow,United States,GGW,KGGW,48.212502,-106.614998,2296,-7,A,America/Denver
Wittman Regional Airport,Oshkosh,United States,OSH,KOSH,43.9844017,-88.5569992,808,-6,A,America/Chicago
Witham Field,Stuart,United States,SUA,KSUA,27.1816998,-80.2210999,16,-5,A,America/New_York
Winter Haven Regional Airport - Gilbert Field,Winter Haven,United States,GIF,KGIF,28.062901,-81.753304,145,-5,A,America/New_York
Winslow Lindbergh Regional Airport,Winslow,United States,INW,KINW,35.0219002,-110.723,4941,-7,N,America/Phoenix
Winnemucca Municipal Airport,Winnemucca,United States,WMC,KWMC,40.8965988,-117.806,4308,\N,\N,\N
Winkler County Airport,Wink,United States,INK,KINK,31.7796001,-103.200996,2822,-6,A,America/Chicago
Wings Field,Philadelphia,United States,BBX,KLOM,40.1375008,-75.2650986,302,-5,A,America/New_York
Windwood Fly-In Resort Airport,Davis,United States,\N,WV62,39.0550995,-79.4313965,3210,-4,A,\N
Windom Municipal Airport,Windom,United States,\N,KMWM,43.9133987,-95.1093979,1410,-6,A,America/Chicago
Windham Airport,Willimantic,United States,\N,KIJD,41.7439995,-72.1802979,247,-5,A,America/New_York
Wilmington International Airport,Wilmington,United States,ILM,KILM,34.2705994,-77.9026031,32,-5,A,America/New_York
Wilmington Airpark,Wilmington,United States,ILN,KILN,39.4278984,-83.792099,1077,-5,U,America/New_York
Willow Run Airport,Detroit,United States,YIP,KYIP,42.2378998,-83.5304031,716,-5,A,America/New_York
Willow Grove Naval Air Station/Joint Reserve Base,Willow Grove,United States,NXX,KNXX,40.1997986,-75.148201,358,-5,A,America/New_York
Willoughby Lost Nation Municipal Airport,Willoughby,United States,LNN,KLNN,41.6839981,-81.3897018,626,-5,A,America/New_York
Williamsport Regional Airport,Williamsport,United States,IPT,KIPT,41.2417984,-76.9210968,529,-5,A,America/New_York
Williamson Sodus Airport,Williamson,United States,\N,KSDC,43.234699,-77.121,424,-5,A,America/New_York
Williamson County Regional Airport,Marion,United States,MWA,KMWA,37.7550011,-89.0111008,472,-6,A,America/Chicago
Williamsburg Jamestown Airport,Williamsburg,United States,\N,KJGG,37.2392006,-76.7161026,49,-5,A,\N
William T. Piper Memorial Airport,Lock Haven,United States,LHV,KLHV,41.135601,-77.4223023,556,-5,A,America/New_York
William R. Pogue Municipal Airport,Sand Springs,United States,\N,KOWP,36.1753006,-96.1518021,892,-5,A,\N
William R Fairchild International Airport,Port Angeles,United States,CLM,KCLM,48.1202011,-123.5,291,-8,A,America/Los_Angeles
William P Hobby Airport,Houston,United States,HOU,KHOU,29.6453991,-95.2789002,46,-6,A,America/Chicago
Will Rogers World Airport,Oklahoma City,United States,OKC,KOKC,35.3931007,-97.6007004,1295,-6,A,America/Chicago
Wilkes County Airport,North Wilkesboro,United States,IKB,KUKF,36.2228012,-81.0982971,1301,-5,A,America/New_York
Wilkes Barre Wyoming Valley Airport,Wilkes-Barre,United States,WBW,KWBW,41.2971992,-75.8511963,545,-5,A,America/New_York
Wilkes Barre Scranton International Airport,Scranton,United States,AVP,KAVP,41.338501,-75.7233963,962,-5,A,America/New_York
Wiley Post Will Rogers Memorial Airport,Barrow,United States,BRW,PABR,71.285402,-156.766008,44,-9,A,America/Anchorage
Wiley Post Airport,Oklahoma City,United States,PWA,KPWA,35.5341988,-97.6471024,1300,-6,A,America/Chicago
Wickenburg Municipal Airport,Wickenburg,United States,\N,KE25,33.9688988,-112.799004,2377,-7,A,America/Phoenix
Wichita Eisenhower National Airport,Wichita,United States,ICT,KICT,37.649899,-97.433098,1333,-6,A,America/Chicago
Whittier Airport,Whittier,United States,\N,PAWR,60.7771988,-148.722,30,-9,U,America/Anchorage
Whiting Field Naval Air Station - North,Milton,United States,NSE,KNSE,30.7241993,-87.0218964,199,-6,A,America/Chicago
Whiteman Airport,Los Angeles,United States,WHP,KWHP,34.2593002,-118.413002,1003,-8,A,America/Los_Angeles
Whiteman Air Force Base,Knobnoster,United States,SZL,KSZL,38.7303009,-93.5478973,870,-6,A,America/Chicago
White Mountain Airport,White Mountain,United States,WMO,PAWM,64.6892014,-163.412994,267,-9,A,America/Anchorage
Whidbey Island Naval Air Station (Ault Field),Whidbey Island,United States,NUW,KNUW,48.351799,-122.655998,47,-8,A,America/Los_Angeles
Wheeling Ohio County Airport,Wheeling,United States,HLG,KHLG,40.1749992,-80.6463013,1195,-5,A,America/New_York
Wheeler Sack Army Air Field,Fort Drum,United States,\N,KGTB,44.0555992,-75.7194977,688,-5,A,America/New_York
Wheeler Army Airfield,Wahiawa,United States,HHI,PHHI,21.4834995,-158.039993,837,-10,A,Pacific/Honolulu
Westover ARB/Metropolitan Airport,Chicopee Falls,United States,CEF,KCEF,42.1940002,-72.5347977,241,-5,A,America/New_York
Westfield-Barnes Regional Airport,Westfield,United States,BAF,KBAF,42.157799,-72.715599,271,-5,A,America/New_York
Western Neb. Rgnl/William B. Heilig Airport,Scottsbluff,United States,BFF,KBFF,41.8740006,-103.596001,3967,-7,A,America/Denver
Westerly State Airport,Washington County,United States,WST,KWST,41.3496017,-71.8033981,81,-5,A,America/New_York
Westchester County Airport,White Plains,United States,HPN,KHPN,41.0670013,-73.7076035,439,-5,A,America/New_York
West Woodward Airport,Woodward,United States,WWR,KWWR,36.438,-99.5226667,2189,\N,\N,\N
West Houston Airport,Houston,United States,IWS,KIWS,29.8181992,-95.6725998,111,-6,A,America/Chicago
West Georgia Regional O V Gray Field,Carrollton,United States,\N,KCTJ,33.6310005,-85.1520004,1161,-5,A,America/New_York
West Bend Municipal Airport,WEST BEND,United States,ETB,KETB,43.4221992,-88.1278992,887,-5,A,\N
West 30th St. Heliport,New York,United States,JRA,KJRA,40.754501,-74.007103,7,-5,A,America/New_York
Wendover Airport,Wendover,United States,ENV,KENV,40.7187004,-114.030998,4237,-7,A,America/Denver
Wellington Municipal Airport,Wellington,United States,\N,KEGT,37.3236008,-97.388298,1277,-6,A,America/Chicago
Weedon Field,Eufala,United States,EUF,KEUF,31.9512997,-85.1288986,285,-6,A,America/Chicago
Waynesville-St. Robert Regional Forney field,Fort Leonardwood,United States,TBN,KTBN,37.7416,-92.1407013,1159,-6,A,America/Chicago
Waycross Ware County Airport,Waycross,United States,AYS,KAYS,31.2490997,-82.3955002,142,-5,A,\N
Wausau Downtown Airport,Wausau,United States,AUW,KAUW,44.9262009,-89.6266022,1201,-6,U,America/Chicago
Waupaca Municipal Airport,Waupaca,United States,\N,KPCZ,44.3333015,-89.0197983,840,-6,A,America/Chicago
Waukegan National Airport,Chicago,United States,UGN,KUGN,42.4221992,-87.867897,727,-6,A,America/Chicago
Wauchula Municipal Airport,Wuchula,United States,\N,KCHN,27.5149002,-81.8805008,106,-5,A,America/New_York
Watsonville Municipal Airport,Watsonville,United States,WVI,KWVI,36.9356995,-121.790001,163,-8,A,\N
Watertown Regional Airport,Watertown,United States,ATY,KATY,44.9140015,-97.1547012,1749,-6,A,America/Chicago
Watertown International Airport,Watertown,United States,ART,KART,43.9919014,-76.021698,325,-5,A,America/New_York
Waterloo Regional Airport,Waterloo,United States,ALO,KALO,42.5570984,-92.4002991,873,-6,A,America/Chicago
Waterbury Oxford Airport,Oxford,United States,OXC,KOXC,41.4785995,-73.1352005,726,-5,A,America/New_York
Wasilla Airport,Wasilla,United States,WWA,PAWS,61.571701,-149.539993,354,\N,\N,\N
Washington Dulles International Airport,Washington,United States,IAD,KIAD,38.9445,-77.4558029,312,-5,A,America/New_York
Warsaw Municipal Airport,Warsaw,United States,\N,KASW,41.2747002,-85.8401031,850,-5,A,America/New_York
Warren Field,Washington,United States,OCW,KOCW,35.5704994,-77.0497971,38,-5,A,America/New_York
"Warren ""Bud"" Woods Palmer Municipal Airport",Palmer,United States,PAQ,PAAQ,61.594898,-149.08901,242,-9,A,America/Anchorage
Wallops Flight Facility Airport,Wallops Island,United States,WAL,KWAL,37.9402008,-75.4664001,40,-5,A,America/New_York
Walla Walla Regional Airport,Walla Walla,United States,ALW,KALW,46.0948982,-118.288002,1194,-8,A,America/Los_Angeles
Wales Airport,Wales,United States,WAA,PAIW,65.622593,-168.095,22,-9,A,America/Anchorage
Wainwright Airport,Wainwright,United States,AIN,PAWI,70.6380005,-159.994995,41,-9,A,America/Anchorage
Wainwright Air Station,Fort Wainwright,United States,\N,PAWT,70.6134033,-159.860001,35,-9,A,America/Anchorage
Waimea Kohala Airport,Kamuela,United States,MUE,PHMU,20.0013008,-155.667999,2671,-10,A,Pacific/Honolulu
Waikoloa Heliport,Waikoloa Village,United States,WKL,HI07,19.9205,-155.8607,119,-10,N,Pacific/Honolulu
Wahoo Municipal Airport,Wahoo,United States,\N,KAHQ,41.2412987,-96.5940018,1224,-5,A,\N
Waco Regional Airport,Waco,United States,ACT,KACT,31.6112995,-97.2304993,516,-6,A,America/Chicago
W K Kellogg Airport,Battle Creek,United States,BTL,KBTL,42.3073006,-85.251503,952,\N,\N,\N
W H 'Bud' Barron Airport,Dublin,United States,DBN,KDBN,32.5643997,-82.9852982,309,-5,A,America/New_York
Volk Field,Camp Douglas,United States,VOK,KVOK,43.9389992,-90.2534027,912,-6,A,America/Chicago
Visalia Municipal Airport,Visalia,United States,VIS,KVIS,36.3186989,-119.392998,295,-8,A,America/Los_Angeles
Vidalia Regional Airport,Vidalia,United States,VDI,KVDI,32.1926994,-82.3712006,275,-4,A,\N
Victoria Regional Airport,Victoria,United States,VCT,KVCT,28.8526001,-96.9185028,115,-6,A,America/Chicago
Vero Beach Regional Airport,Vero Beach,United States,VRB,KVRB,27.6556,-80.417901,24,-5,A,America/New_York
Vernal Regional Airport,Vernal,United States,VEL,KVEL,40.4408989,-109.510002,5278,-7,A,America/Denver
Vermilion Regional Airport,Danville,United States,DNV,KDNV,40.1991997,-87.5959015,697,-6,A,America/Chicago
Venice Municipal Airport,Venice,United States,VNC,KVNC,27.0716,-82.4403,18,-5,A,America/New_York
Venetie Airport,Venetie,United States,VEE,PAVE,67.0086975,-146.365997,574,-9,A,America/Anchorage
Venango Regional Airport,Franklin,United States,FKL,KFKL,41.3778992,-79.8603973,1540,-5,A,America/New_York
Vandenberg Air Force Base,Lompoc,United States,VBG,KVBG,34.7373009,-120.584,369,-8,A,America/Los_Angeles
Vance Air Force Base,Enid,United States,END,KEND,36.3391991,-97.9164963,1307,-6,A,America/Chicago
Van Wert County Airport,Van Wert,United States,\N,KVNW,40.8647003,-84.6093979,785,-5,A,America/New_York
Van Nuys Airport,Van Nuys,United States,VNY,KVNY,34.2098007,-118.489998,802,-8,A,America/Los_Angeles
Valley International Airport,Harlingen,United States,HRL,KHRL,26.2285004,-97.6544037,36,-6,A,America/Chicago
Valdosta Regional Airport,Valdosta,United States,VLD,KVLD,30.7824993,-83.2767029,203,-5,A,America/New_York
Valdez Pioneer Field,Valdez,United States,VDZ,PAVD,61.1338997,-146.248001,121,-9,A,America/Anchorage
Upolu Airport,Opolu,United States,UPP,PHUP,20.2653008,-155.860001,96,-10,A,Pacific/Honolulu
University of Illinois Willard Airport,Champaign,United States,CMI,KCMI,40.0391998,-88.2780991,755,-6,A,America/Chicago
University Park Airport,State College Pennsylvania,United States,SCE,KUNV,40.8493004,-77.8487015,1239,-5,A,America/New_York
University Oxford Airport,Oxford,United States,UOX,KUOX,34.3843002,-89.5367966,452,\N,\N,\N
Union County Airport,Marysville,United States,\N,KMRT,40.2247009,-83.3516006,1021,-5,A,\N
Unalaska Airport,Unalaska,United States,DUT,PADU,53.9001007,-166.544006,22,-9,A,America/Anchorage
Unalakleet Airport,Unalakleet,United States,UNK,PAUN,63.888401,-160.798996,27,-9,A,America/Anchorage
Ulysses Airport,Ulysses,United States,\N,KULS,37.6040001,-101.374001,3071,-5,A,\N
Ukiah Municipal Airport,Ukiah,United States,UKI,KUKI,39.1259995,-123.200996,614,\N,\N,\N
Ugnu-Kuparuk Airport,Kuparuk,United States,UUK,PAKU,70.3308029,-149.598007,67,-9,A,America/Anchorage
Tyndall Air Force Base,Panama City,United States,PAM,KPAM,30.0695992,-85.5754013,17,-6,A,America/Chicago
Tyler Pounds Regional Airport,Tyler,United States,TYR,KTYR,32.3540993,-95.4023972,544,-6,A,America/Chicago
Twentynine Palms (Self) Airport,Twenty Nine Palms,United States,\N,KNXP,34.2961998,-116.162003,2051,-8,A,America/Los_Angeles
Tweed New Haven Airport,New Haven,United States,HVN,KHVN,41.2636986,-72.8868027,12,-5,A,America/New_York
Tuscaloosa Regional Airport,Tuscaloosa AL,United States,TCL,KTCL,33.2206001,-87.6113968,170,-6,A,America/Chicago
Turkey Mountain Estates Airport,Shell Knob,United States,\N,MO00,36.5917015,-93.6669006,1000,-5,A,\N
Tupelo Regional Airport,Tupelo,United States,TUP,KTUP,34.2681007,-88.7698975,346,-6,A,America/Chicago
Tunica Municipal Airport,Tunica,United States,UTM,KUTA,34.6809998,-90.3467026,194,-6,A,America/Chicago
Tulsa International Airport,Tulsa,United States,TUL,KTUL,36.1983986,-95.8880997,677,-6,A,America/Chicago
Tulip City Airport,Holland,United States,\N,KBIV,42.7429008,-86.107399,698,-5,A,America/New_York
Tucumcari Municipal Airport,Tucumcari,United States,TCC,KTCC,35.1828003,-103.602997,4065,-7,A,America/Denver
Tucson International Airport,Tucson,United States,TUS,KTUS,32.1161003,-110.941002,2643,-7,N,America/Phoenix
Truth Or Consequences Municipal Airport,Truth Or Consequences,United States,TCS,KTCS,33.2369003,-107.272003,4853,-7,A,America/Denver
Truckee Tahoe Airport,Truckee,United States,TKF,KTRK,39.3199997,-120.139999,5900,-8,A,America/Los_Angeles
Troy Municipal Airport at N Kenneth Campbell Field,Troy,United States,TOI,KTOI,31.860399,-86.012101,398,-5,A,\N
Tri-State/Milton J. Ferguson Field,Huntington,United States,HTS,KHTS,38.3666992,-82.5579987,828,-5,A,America/New_York
Tri-County Regional Airport,Lone Rock,United States,LNR,KLNR,43.2117004,-90.1816025,717,-6,A,America/Chicago
Tri-City Airport,Parsons,United States,PPF,KPPF,37.3298988,-95.5062027,900,-6,A,\N
Tri-Cities Regional TN/VA Airport,BRISTOL,United States,TRI,KTRI,36.475201,-82.407401,1519,-5,A,America/New_York
Tri State Steuben County Airport,Angola,United States,ANQ,KANQ,41.639702,-85.083504,995,-5,A,America/New_York
Tri Cities Airport,Pasco,United States,PSC,KPSC,46.2647018,-119.119003,410,-8,A,America/Los_Angeles
Tri Cities Airport,Endicott,United States,\N,KCZG,42.078499,-76.096296,833,-5,A,America/New_York
Trenton Mercer Airport,Trenton,United States,TTN,KTTN,40.2766991,-74.8134995,213,-5,A,America/New_York
Travis Air Force Base,Fairfield,United States,SUU,KSUU,38.2626991,-121.927002,62,-8,A,America/Los_Angeles
Tracy Municipal Airport,Tracy,United States,\N,KTCY,37.6889992,-121.442001,193,-8,A,\N
Topeka Regional Airport - Forbes Field,Topeka,United States,FOE,KFOE,38.950901,-95.6635971,1078,-6,A,America/Chicago
Tonopah Test Range Airport,Tonopah,United States,XSD,KTNX,37.7988014,-116.780998,5549,-8,A,America/Los_Angeles
Tonopah Airport,Tonopah,United States,TPH,KTPH,38.0601997,-117.086998,5430,\N,\N,\N
Tom B. David Field,Calhoun,United States,\N,KCZL,34.4553986,-84.9392014,647,-5,A,America/New_York
Toledo Express Airport,Toledo,United States,TOL,KTOL,41.5867996,-83.8078003,683,-5,A,America/New_York
Toksook Bay Airport,Toksook Bay,United States,OOK,PAOO,60.5414009,-165.087006,59,-9,A,America/Anchorage
Tok Junction Airport,Tok,United States,TKJ,PFTO,63.3294983,-142.953995,1639,-9,A,America/Anchorage
Tok Airport,Tok,United States,\N,PATJ,63.303333,-143.001111,1670,-9,A,America/Anchorage
Togiak Airport,Togiak Village,United States,TOG,PATG,59.0527992,-160.397003,21,-9,A,America/Anchorage
Toccoa Airport - R.G. Letourneau Field,Toccoa,United States,TOC,KTOC,34.5937996,-83.2957993,996,-5,A,America/New_York
Tipton Airport,Fort Meade,United States,FME,KFME,39.0853996,-76.7593994,150,-5,A,America/New_York
Tinker Air Force Base,Oklahoma City,United States,TIK,KTIK,35.4146996,-97.3865967,1291,-6,A,America/Chicago
Tin City Long Range Radar Station Airport,Tin City,United States,TNC,PATC,65.5631027,-167.921997,271,-9,A,America/Anchorage
Tillamook Airport,Tillamook,United States,OTK,KTMK,45.4182014,-123.814003,36,-8,A,America/Los_Angeles
Thomson-McDuffie County Airport,Thomson,United States,\N,KHQU,33.5297012,-82.5165024,501,-5,A,America/New_York
Thomasville Regional Airport,Thomasville,United States,TVI,KTVI,30.9015999,-83.8813019,264,-5,A,America/New_York
Thomas C Russell Field,Alexander City,United States,ALX,KALX,32.9146996,-85.9629974,686,-5,A,\N
Thief River Falls Regional Airport,Thief River Falls,United States,TVF,KTVF,48.0657005,-96.1849976,1119,-6,A,America/Chicago
Theodore Francis Green State Airport,Providence,United States,PVD,KPVD,41.732601,-71.420403,55,-5,A,America/New_York
The Ohio State University Airport - Don Scott Field,Columbus,United States,OSU,KOSU,40.0798,-83.072998,905,-5,U,America/New_York
The Florida Keys Marathon Airport,Marathon,United States,MTH,KMTH,24.726101,-81.051399,5,-5,A,America/New_York
The Farm Airport,Summit,United States,\N,24SC,33.9357986,-81.4297028,580,-4,A,\N
The Eastern Iowa Airport,Cedar Rapids,United States,CID,KCID,41.8847008,-91.7108002,869,-6,A,America/Chicago
Texas Gulf Coast Regional Airport,Angleton,United States,LJN,KLBX,29.1086006,-95.4620972,25,-6,A,America/Chicago
Texarkana Regional Webb Field,Texarkana,United States,TXK,KTXK,33.453701,-93.9909973,390,-6,A,America/Chicago
Teterboro Airport,Teterboro,United States,TEB,KTEB,40.8501015,-74.0607986,9,-5,A,America/New_York
"Terre Haute Regional Airport, Hulman Field",Terre Haute,United States,HUF,KHUF,39.4515,-87.307602,589,-5,A,America/New_York
Telluride Regional Airport,Telluride,United States,TEX,KTEX,37.9538002,-107.907997,9070,-7,A,America/Denver
Teller Airport,Teller,United States,TLA,PATE,65.2404022,-166.339005,294,-9,A,America/Anchorage
Ted Stevens Anchorage International Airport,Anchorage,United States,ANC,PANC,61.1744003,-149.996002,152,-9,A,America/Anchorage
Taunton Municipal King Field,Taunton,United States,\N,KTAN,41.8744011,-71.0166016,43,-5,A,America/New_York
Tatalina LRRS Airport,Tatalina,United States,TLJ,PATL,62.8944016,-155.977005,964,-9,A,America/Anchorage
Taszár Air Base,Columbus,United States,TZR,LHTA,46.3931007,17.9174995,531,1,A,Europe/Budapest
Taos Regional Airport,Taos,United States,TSM,KSKX,36.4581986,-105.671997,7095,-6,A,\N
Tampa International Airport,Tampa,United States,TPA,KTPA,27.9755001,-82.5332031,26,-5,A,America/New_York
Tallahassee Regional Airport,Tallahassee,United States,TLH,KTLH,30.3964996,-84.3503036,81,-5,A,America/New_York
Talladega Municipal Airport,Talladega,United States,ASN,KASN,33.5699005,-86.0509033,529,-5,A,\N
Talkeetna Airport,Talkeetna,United States,TKA,PATK,62.3204994,-150.093994,358,-9,A,America/Anchorage
Tacoma Narrows Airport,Tacoma,United States,TIW,KTIW,47.2678986,-122.578003,294,-8,A,America/Los_Angeles
TSTC Waco Airport,Waco,United States,CNW,KCNW,31.6378002,-97.0740967,470,-6,A,America/Chicago
Syracuse Hancock International Airport,Syracuse,United States,SYR,KSYR,43.1111984,-76.1063004,421,-5,A,America/New_York
Sussex County Airport,Georgetown,United States,GED,KGED,38.6892014,-75.358902,53,-5,A,America/New_York
Sugar Loaf Shores Airport,Key West,United States,\N,7FA1,24.6487999,-81.5798035,4,-5,A,America/New_York
Sugar Land Regional Airport,Sugar Land,United States,SGR,KSGR,29.6222992,-95.6565018,82,-6,A,America/Chicago
Sublette Municipal Airport,Sublette,United States,\N,K19S,37.4914017,-100.830002,2908,-5,A,\N
Strother Field,Winfield,United States,WLD,KWLD,37.1685982,-97.0375977,1160,-6,A,America/Chicago
Stockton Metropolitan Airport,Stockton,United States,SCK,KSCK,37.8941994,-121.237999,33,-8,A,America/Los_Angeles
Stinson Municipal Airport,Stinson,United States,SSF,KSSF,29.3369999,-98.4710999,577,-5,A,\N
Stillwater Regional Airport,Stillwater,United States,SWO,KSWO,36.1612015,-97.085701,1000,-6,A,America/Chicago
Stewart International Airport,Newburgh,United States,SWF,KSWF,41.5041008,-74.1047974,491,-5,A,America/New_York
Stevens Point Municipal Airport,Stevens Point,United States,STE,KSTE,44.5452003,-89.5302963,1110,-6,A,America/Chicago
Sterling Municipal Airport,Sterling,United States,STK,KSTK,40.6152992,-103.264999,4040,-7,A,America/Denver
Stephenville Clark Regional Airport,Stephenville,United States,SEP,KSEP,32.2153015,-98.1776962,1321,-6,A,America/Chicago
Stephens County Airport,Breckenridge,United States,BKD,KBKD,32.7190018,-98.8909988,1284,-6,A,America/Chicago
Stennis International Airport,Bay St. Louis,United States,\N,KHSA,30.3677998,-89.4545975,23,-5,A,\N
Steamboat Springs Bob Adams Field,Steamboat Springs,United States,SBS,KSBS,40.5163002,-106.865997,6882,-7,A,America/Denver
Statesville Regional Airport,Statesville,United States,SVH,KSVH,35.7653008,-80.9539032,968,-5,A,America/New_York
Statesboro Bulloch County Airport,Statesboro,United States,TBR,KTBR,32.4827003,-81.7369003,187,-5,A,\N
Stanly County Airport,Albemarle,United States,\N,KVUJ,35.4166985,-80.1508026,609,-4,A,\N
St Petersburg Clearwater International Airport,St. Petersburg,United States,PIE,KPIE,27.9102001,-82.6874008,11,-5,A,America/New_York
St Paul Island Airport,St. Paul Island,United States,SNP,PASN,57.1673012,-170.220001,63,-9,A,America/Anchorage
St Paul Downtown Holman Field,St. Paul,United States,STP,KSTP,44.9345016,-93.0599976,705,-6,A,America/Chicago
St Michael Airport,St. Michael,United States,SMK,PAMK,63.4901009,-162.110001,98,-9,A,America/Anchorage
St Mary's Airport,St Mary's,United States,KSM,PASM,62.0605011,-163.302002,312,-9,A,America/Anchorage
St Lucie County International Airport,Fort Pierce,United States,FPR,KFPR,27.4951,-80.3683014,24,-5,A,America/New_York
St Louis Regional Airport,Alton/St Louis,United States,ALN,KALN,38.8903008,-90.0459976,544,\N,\N,\N
St Louis Lambert International Airport,St. Louis,United States,STL,KSTL,38.748697,-90.370003,618,-6,A,America/Chicago
St George Municipal Airport,Saint George,United States,SGU,KSGU,37.036389,-113.510306,2941,-7,A,America/Denver
St George Airport,Point Barrow,United States,STG,PAPB,56.5783005,-169.662003,125,-9,A,America/Anchorage
St Cloud Regional Airport,Saint Cloud,United States,STC,KSTC,45.5466003,-94.0598984,1031,-6,A,America/Chicago
St Clair County International Airport,Port Huron,United States,PHN,KPHN,42.9109993,-82.5289002,650,-5,A,America/New_York
Springfield-Beckley Municipal Airport,Springfield,United States,SGH,KSGH,39.8403015,-83.8402023,1051,-5,A,America/New_York
Springfield Branson National Airport,Springfield,United States,SGF,KSGF,37.2457008,-93.3886032,1268,-6,A,America/Chicago
Spokane International Airport,Spokane,United States,GEG,KGEG,47.6198997,-117.533997,2376,-8,A,America/Los_Angeles
Spirit of St Louis Airport,Null,United States,SUS,KSUS,38.6621017,-90.6520004,463,-6,A,America/Chicago
Spencer Municipal Airport,Spencer,United States,SPW,KSPW,43.1655006,-95.2027969,1339,-6,A,America/Chicago
Spartanburg Downtown Memorial Airport,Spartangurg,United States,SPA,KSPA,34.915699,-81.9564972,801,-5,A,\N
Sparrevohn LRRS Airport,Sparrevohn,United States,SVW,PASV,61.0974007,-155.574005,1585,-9,A,America/Anchorage
Space Coast Regional Airport,Titusville,United States,TIX,KTIX,28.5147991,-80.799202,34,-5,A,America/New_York
Southwest Wyoming Regional Airport,Rock Springs,United States,RKS,KRKS,41.5942,-109.065001,6764,-7,A,America/Denver
Southwest Washington Regional Airport,Kelso,United States,KLS,KKLS,46.118,-122.898003,20,-8,A,America/Los_Angeles
Southwest Oregon Regional Airport,North Bend,United States,OTH,KOTH,43.417099,-124.246002,17,-8,A,America/Los_Angeles
Southwest Georgia Regional Airport,Albany,United States,ABY,KABY,31.5354996,-84.1945038,197,-5,A,America/New_York
Southwest Florida International Airport,Fort Myers,United States,RSW,KRSW,26.5361996,-81.7552032,30,-5,A,America/New_York
Southern Wisconsin Regional Airport,Janesville,United States,JVL,KJVL,42.6203003,-89.0416031,808,-6,A,America/Chicago
Southern Illinois Airport,Carbondale/Murphysboro,United States,MDH,KMDH,37.7780991,-89.2519989,411,\N,\N,\N
Southern California Logistics Airport,Victorville,United States,VCV,KVCV,34.5974998,-117.383003,2885,-8,A,America/Los_Angeles
Southeast Texas Regional Airport,Beaumont,United States,BPT,KBPT,29.9507999,-94.0206985,15,-6,A,America/Chicago
Southeast Iowa Regional Airport,Burlington,United States,BRL,KBRL,40.7831993,-91.1255035,698,-6,A,America/Chicago
South Texas Regional Airport at Hondo,Hondo,United States,\N,KHDO,29.3595009,-99.1766968,930,-6,A,America/Chicago
South Naknek Nr 2 Airport,South Naknek,United States,WSN,PFWS,58.7033997,-157.007996,162,-9,A,America/Anchorage
South Jersey Regional Airport,Mount Holly,United States,LLY,KVAY,39.9429016,-74.8457031,53,-5,A,America/New_York
South Haven Area Regional Airport,South Haven,United States,\N,KLWA,42.3512001,-86.2556992,666,-5,A,America/New_York
South Bend Regional Airport,South Bend,United States,SBN,KSBN,41.7086983,-86.3172989,799,-5,A,America/New_York
South Arkansas Regional At Goodwin Field,El Dorado,United States,ELD,KELD,33.2210007,-92.8133011,277,-6,A,America/Chicago
Sonora Municipal Airport,Sonora,United States,\N,KSOA,30.5856991,-100.649002,2140,\N,\N,\N
Somerset Airport,Somerville,United States,\N,KSMQ,40.6259995,-74.6701965,105,-5,A,America/New_York
Soldotna Airport,Soldotna,United States,SXQ,PASX,60.4757004,-151.033997,113,-9,U,America/Anchorage
Socorro Municipal Airport,Socorro,United States,\N,KONM,34.0224991,-106.903,4875,-6,A,\N
Snohomish County (Paine Field) Airport,Everett,United States,PAE,KPAE,47.9062996,-122.281998,606,-8,A,America/Los_Angeles
Smyrna Airport,Smyrna,United States,MQY,KMQY,36.0089989,-86.5201035,543,-6,A,America/Chicago
Smith Reynolds Airport,Winston-salem,United States,INT,KINT,36.1337013,-80.2220001,969,-5,A,America/New_York
Smith Field,Fort Wayne IN,United States,SMD,KSMD,41.1433983,-85.1528015,835,-5,A,America/New_York
Sloulin Field International Airport,Williston,United States,ISN,KISN,48.1778984,-103.641998,1982,-6,A,America/Chicago
Sleetmute Airport,Sleetmute,United States,SLQ,PASL,61.7005005,-157.166,190,-9,A,America/Anchorage
Skyhaven Airport,Rochester,United States,\N,KDAW,43.2840996,-70.9292984,322,-5,A,America/New_York
Sky Ranch At Carefree Airport,Carefree,United States,\N,18AZ,33.8181,-111.898003,2568,-7,N,America/Phoenix
Skagway Airport,Skagway,United States,SGY,PAGY,59.4600983,-135.315994,44,-9,A,America/Anchorage
Skagit Regional Airport,Skagit,United States,MVW,KBVS,48.4709015,-122.420998,144,-8,A,\N
Sitka Rocky Gutierrez Airport,Sitka,United States,SIT,PASI,57.0471001,-135.362,21,-9,A,America/Anchorage
Sioux Gateway Col. Bud Day Field,Sioux City,United States,SUX,KSUX,42.4025993,-96.3843994,1098,-6,A,America/Chicago
Simmons Army Air Field,Fredericksburg,United States,FBG,KFBG,35.1318016,-78.9366989,244,-5,A,America/New_York
Silver Springs Airport,Silver Springs,United States,\N,KSPZ,39.4029999,-119.250999,4269,-8,A,America/Los_Angeles
Sikeston Memorial Municipal Airport,Sikeston,United States,SIK,KSIK,36.8988991,-89.5617981,315,-6,A,America/Chicago
Sierra Vista Municipal Libby Army Air Field,Fort Huachuca,United States,FHU,KFHU,31.5884991,-110.344002,4719,-7,A,America/Phoenix
Sierra Blanca Regional Airport,Ruidoso,United States,RUI,KSRR,33.4627991,-105.535004,6814,-7,A,America/Denver
Sidney Municipal-Lloyd W Carr Field,Sidney,United States,SNY,KSNY,41.1012993,-102.985001,4313,-7,A,America/Denver
Sidney - Richland Regional Airport,Sidney,United States,SDY,KSDY,47.706902,-104.193001,1985,-7,A,America/Denver
Shungnak Airport,Shungnak,United States,SHG,PAGH,66.8880997,-157.162003,197,-9,A,America/Anchorage
Shreveport Regional Airport,Shreveport,United States,SHV,KSHV,32.446602,-93.8256,258,-6,A,America/Chicago
Shreveport Downtown Airport,Shreveport,United States,DTN,KDTN,32.5401993,-93.7450027,179,-6,A,America/Chicago
Show Low Regional Airport,Show Low,United States,SOW,KSOW,34.2654991,-110.005997,6415,-7,A,America/Phoenix
Shively Field,SARATOGA,United States,SAA,KSAA,41.444901,-106.823997,7012,-7,A,America/Denver
Shishmaref Airport,Shishmaref,United States,SHH,PASH,66.249604,-166.089112,12,-9,A,America/Anchorage
Sherman Army Air Field,Fort Leavenworth,United States,FLV,KFLV,39.3683014,-94.9147034,772,-6,A,America/Chicago
Sheridan County Airport,Sheridan,United States,SHR,KSHR,44.7691994,-106.980003,4021,-7,A,America/Denver
Sheppard Air Force Base-Wichita Falls Municipal Airport,Wichita Falls,United States,SPS,KSPS,33.9888,-98.491898,1019,-6,A,America/Chicago
Shenandoah Valley Regional Airport,Weyers Cave,United States,SHD,KSHD,38.2638016,-78.8964005,1201,-5,A,America/New_York
Shelby County Airport,Alabaster,United States,\N,KEET,33.1769981,-86.7827988,586,-6,A,America/Chicago
Shelby County Airport,Shelbyville,United States,\N,K2H0,39.4104004,-88.8453979,618,-6,A,America/Chicago
Sheboygan County Memorial Airport,Sheboygan,United States,SBM,KSBM,43.7695999,-87.8514023,755,-6,A,America/Chicago
Shaw Air Force Base,Sumter,United States,SSC,KSSC,33.9726982,-80.4705963,241,-5,A,America/New_York
Shaktoolik Airport,Shaktoolik,United States,SKK,PFSH,64.3711014,-161.223999,24,-9,A,America/Anchorage
Shageluk Airport,Shageluk,United States,SHX,PAHX,62.6922989,-159.569,79,-9,A,America/Anchorage
Seymour Johnson Air Force Base,Goldsboro,United States,GSB,KGSB,35.3394013,-77.9606018,109,-5,A,America/New_York
Seward Airport,Seward,United States,SWD,PAWD,60.1268997,-149.419006,22,-9,U,America/Anchorage
Selfridge Air National Guard Base Airport,Mount Clemens,United States,MTC,KMTC,42.613463,-82.836919,580,-5,A,America/New_York
Seldovia Airport,Seldovia,United States,SOV,PASO,59.4424019,-151.703995,29,-9,A,\N
Selawik Airport,Selawik,United States,WLK,PASK,66.6000977,-159.985992,17,-9,A,America/Anchorage
Sedona Airport,Sedona,United States,SDX,KSEZ,34.8485985,-111.788002,4830,-7,A,America/Phoenix
Sebring Regional Airport,Sebring,United States,SEF,KSEF,27.4563999,-81.3423996,62,-5,A,America/New_York
Seattle Tacoma International Airport,Seattle,United States,SEA,KSEA,47.449001,-122.308998,433,-8,A,America/Los_Angeles
Scottsdale Airport,Scottsdale,United States,SCF,KSDL,33.6228981,-111.911003,1510,-7,A,America/Phoenix
Scott City Municipal Airport,Scott City,United States,\N,KTQK,38.4743004,-100.885002,2963,-5,A,\N
Scott AFB/Midamerica Airport,Belleville,United States,BLV,KBLV,38.5452,-89.835197,459,-6,A,America/Chicago
Scholes International At Galveston Airport,Galveston,United States,GLS,KGLS,29.2653008,-94.8603973,6,-6,A,America/Chicago
Schenectady County Airport,Scotia NY,United States,SCH,KSCH,42.8525009,-73.9289017,378,-5,A,America/New_York
Scappoose Industrial Airpark,San Luis,United States,\N,KSPB,45.7709999,-122.862,58,-8,A,America/Los_Angeles
Scammon Bay Airport,Scammon Bay,United States,SCM,PACM,61.8452988,-165.570999,14,-9,A,America/Anchorage
Sawyer International Airport,Gwinn,United States,MQT,KSAW,46.3535995,-87.395401,1221,-5,A,America/New_York
Sawyer County Airport,Hayward,United States,HYR,KHYR,46.0251999,-91.4442978,1216,\N,\N,\N
Savoonga Airport,Savoonga,United States,SVA,PASA,63.6864014,-170.492996,53,-9,A,America/Anchorage
Savannah Hilton Head International Airport,Savannah,United States,SAV,KSAV,32.1276016,-81.2021027,50,-5,A,America/New_York
Saratoga County Airport,Ballston Spa,United States,\N,K5B2,43.0513001,-73.8611984,434,-5,A,America/New_York
Sarasota Bradenton International Airport,Sarasota,United States,SRQ,KSRQ,27.3953991,-82.5543976,30,-5,A,America/New_York
Santa Ynez Airport,Santa Ynez,United States,SQA,KIZA,34.6068001,-120.075996,674,-8,A,\N
Santa Monica Municipal Airport,Santa Monica,United States,SMO,KSMO,34.0158005,-118.450996,177,-8,A,America/Los_Angeles
Santa Maria Pub/Capt G Allan Hancock Field,Santa Maria,United States,SMX,KSMX,34.8988991,-120.457001,261,-8,A,America/Los_Angeles
Santa Fe Municipal Airport,Santa Fe,United States,SAF,KSAF,35.6170998,-106.088997,6348,-7,A,America/Denver
Santa Barbara Municipal Airport,Santa Barbara,United States,SBA,KSBA,34.4262009,-119.839996,13,-8,A,America/Los_Angeles
Sandpoint Airport,Sandpoint,United States,\N,KSZT,48.2994995,-116.559998,2131,-8,A,\N
Sanderson Field,Shelton,United States,SHN,KSHN,47.2336006,-123.148003,273,-8,A,America/Los_Angeles
Sand Point Airport,Sand Point,United States,SDP,PASD,55.3149986,-160.522995,21,-9,A,America/Anchorage
San Nicolas Island Nolf Airport,San Nicolas Island,United States,\N,KNSI,33.2397995,-119.458,506,-8,A,America/Los_Angeles
San Marcos Regional Airport,San Marcos,United States,\N,KHYI,29.8927,-97.862999,597,\N,\N,\N
San Luis Valley Regional Bergman Field,Alamosa,United States,ALS,KALS,37.434898,-105.866997,7539,-7,A,America/Denver
San Luis County Regional Airport,San Luis Obispo,United States,SBP,KSBP,35.2368011,-120.641998,212,-8,A,America/Los_Angeles
San Gabriel Valley Airport,El Monte,United States,EMT,KEMT,34.086102,-118.035004,296,-8,E,\N
San Francisco International Airport,San Francisco,United States,SFO,KSFO,37.6189995,-122.375,13,-8,A,America/Los_Angeles
San Diego International Airport,San Diego,United States,SAN,KSAN,32.7336006,-117.190002,17,-8,A,America/Los_Angeles
San Clemente Island Naval Auxiliary Landing Field,San Clemente Island,United States,\N,KNUC,33.0227013,-118.587997,184,-8,A,America/Los_Angeles
San Carlos Airport,San Carlos,United States,SQL,KSQL,37.5119019,-122.25,5,-8,A,America/Los_Angeles
San Bernardino International Airport,San Bernardino,United States,SBD,KSBD,34.0954018,-117.235001,1159,-8,A,America/Los_Angeles
San Antonio International Airport,San Antonio,United States,SAT,KSAT,29.5337009,-98.4698029,809,-6,A,America/Chicago
San Angelo Regional Mathis Field,San Angelo,United States,SJT,KSJT,31.3577003,-100.496002,1919,-6,A,America/Chicago
San Agustin Airport,Morristown,United States,\N,MRST,10.0666666,-84.8833313,66,-6,A,America/Costa_Rica
Saluda County Airport,Saluda,United States,\N,K6J4,33.9267998,-81.7946014,555,-5,A,America/New_York
Salt Lake City International Airport,Salt Lake City,United States,SLC,KSLC,40.7883987,-111.977997,4227,-7,A,America/Denver
Sallisaw Municipal Airport,Sallisaw,United States,\N,KJSV,35.4382019,-94.802803,527,-5,A,\N
Salisbury Ocean City Wicomico Regional Airport,Salisbury,United States,SBY,KSBY,38.3404999,-75.5102997,52,-5,A,America/New_York
Saline County Regional Airport,Benton,United States,\N,KSUZ,34.5905991,-92.4794006,390,\N,\N,\N
Salinas Municipal Airport,Salinas,United States,SNS,KSNS,36.6627998,-121.606003,85,\N,\N,\N
Salina Municipal Airport,Salina,United States,SLN,KSLN,38.7910004,-97.6521988,1288,-6,A,America/Chicago
Salem Municipal Airport/McNary Field,Salem,United States,SLE,KSLE,44.9095001,-123.002998,214,-8,A,America/Los_Angeles
Safford Regional Airport,Safford,United States,SAD,KSAD,32.8548012,-109.635002,3179,-7,N,America/Phoenix
Sacramento Mather Airport,Sacramento,United States,MHR,KMHR,38.5539017,-121.297997,98,-8,A,America/Los_Angeles
Sacramento International Airport,Sacramento,United States,SMF,KSMF,38.6954002,-121.591003,27,-8,A,America/Los_Angeles
Sacramento Executive Airport,Sacramento,United States,SAC,KSAC,38.5125008,-121.492996,24,-8,A,America/Los_Angeles
Sabetha Municipal Airport,Sabetha,United States,\N,KK83,39.9042015,-95.7794037,1330,-6,A,America/Chicago
Ryan Field,Tucson,United States,\N,KRYN,32.1422005,-111.175003,2417,-7,A,\N
Rutland - Southern Vermont Regional Airport,Rutland,United States,RUT,KRUT,43.5293999,-72.9496002,787,-5,A,America/New_York
Russian Mission Airport,Russian Mission,United States,RSH,PARS,61.7788849,-161.319458,51,-9,A,America/Anchorage
Russell Municipal Airport,Russell,United States,RSL,KRSL,38.8721008,-98.8117981,1862,\N,\N,\N
Rusk County Airport,Ladysmith,United States,\N,KRCX,45.4967995,-91.0005035,1238,-5,A,\N
Ruby Airport,Ruby,United States,RBY,PARY,64.7272034,-155.470001,658,-9,A,America/Anchorage
Rough River State Park Airport,Null,United States,\N,K2I3,37.610022,-86.507262,577,-6,A,America/Chicago
Roswell International Air Center Airport,Roswell,United States,ROW,KROW,33.3016014,-104.530998,3671,-7,A,America/Denver
Rosecrans Memorial Airport,Rosecrans,United States,STJ,KSTJ,39.7719002,-94.9096985,826,-6,A,America/Chicago
Roscommon County - Blodgett Memorial Airport,Houghton Lake,United States,HTL,KHTL,44.359798,-84.671095,1150,-5,A,America/New_York
Ronald Reagan Washington National Airport,Washington,United States,DCA,KDCA,38.8521,-77.037697,15,-5,A,America/New_York
Rogue Valley International Medford Airport,Medford,United States,MFR,KMFR,42.3741989,-122.873001,1335,-8,A,America/Los_Angeles
Rocky Mountain Metropolitan Airport,Broomfield-CO,United States,BJC,KBJC,39.9087982,-105.116997,5673,-7,A,America/Denver
Rocky Mount Wilson Regional Airport,Rocky Mount,United States,RWI,KRWI,35.8563004,-77.8918991,159,-5,A,America/New_York
Rock Hill - York County Airport,Rock Hill,United States,RKH,KUZA,34.9878006,-81.0571976,666,-5,A,America/New_York
Rochester International Airport,Rochester,United States,RST,KRST,43.9082985,-92.5,1317,-6,A,America/Chicago
Robinson Army Air Field,Robinson,United States,\N,KRBM,34.8501015,-92.3002014,587,-6,A,America/Chicago
Robins Air Force Base,Macon,United States,WRB,KWRB,32.6400986,-83.5919037,294,-5,A,America/New_York
Roberts Field,Redmond-Bend,United States,RDM,KRDM,44.2541008,-121.150002,3080,-8,A,America/Los_Angeles
Robert S Kerr Airport,Poteau,United States,\N,KRKR,35.0215988,-94.6212997,451,-6,A,America/Chicago
Robert Gray Army Air Field Airport,Killeen,United States,GRK,KGRK,31.0671997,-97.8289032,1015,-6,A,America/Chicago
Robert (Bob) Curtis Memorial Airport,Noorvik,United States,ORV,PFNO,66.8179016,-161.018997,55,-9,A,America/Anchorage
Roanoke–Blacksburg Regional Airport,Roanoke VA,United States,ROA,KROA,37.3255,-79.975403,1175,-5,A,America/New_York
Riverton Regional Airport,Riverton WY,United States,RIW,KRIW,43.0642014,-108.459999,5525,-7,A,America/Denver
Riverside Municipal Airport,Riverside,United States,RAL,KRAL,33.9519005,-117.445,819,-8,A,America/Los_Angeles
Ridgely Airpark,Ridgely,United States,\N,KRJD,38.9701004,-75.8663025,64,-5,A,\N
Rickenbacker International Airport,Columbus,United States,LCK,KLCK,39.813801,-82.927803,744,-5,A,America/New_York
Rick Husband Amarillo International Airport,Amarillo,United States,AMA,KAMA,35.219398,-101.706001,3607,-6,A,America/Chicago
Richmond Municipal Airport,Richmond,United States,\N,KRID,39.7571983,-84.8427963,1140,-5,U,America/New_York
Richmond International Airport,Richmond,United States,RIC,KRIC,37.5051994,-77.3197021,167,-5,A,America/New_York
Richmond County Airport,Rockingham,United States,\N,KRCZ,34.8913,-79.759598,358,-5,A,America/New_York
Richfield Municipal Airport,Richfield,United States,\N,KRIF,38.7364006,-112.098999,5301,-7,A,America/Denver
Richard Lloyd Jones Jr Airport,Tulsa,United States,RVS,KRVS,36.0396004,-95.9845963,638,-6,A,America/Chicago
Richard B Russell Airport,Rome,United States,RMG,KRMG,34.3506012,-85.1579971,644,-5,A,America/New_York
Rhinelander Oneida County Airport,Rhinelander,United States,RHI,KRHI,45.6311989,-89.4674988,1624,-6,A,America/Chicago
Republic Airport,Farmingdale,United States,FRG,KFRG,40.7288017,-73.4133987,82,-5,A,America/New_York
Renton Municipal Airport,Renton,United States,RNT,KRNT,47.4930992,-122.216003,32,-8,A,America/Los_Angeles
Reno Tahoe International Airport,Reno,United States,RNO,KRNO,39.4990997,-119.767998,4415,-8,A,America/Los_Angeles
Renner Field-Goodland Municipal Airport,Goodland,United States,GLD,KGLD,39.3706017,-101.698998,3656,-7,A,America/Denver
Reid-Hillview Airport of Santa Clara County,San Jose,United States,RHV,KRHV,37.332901,-121.819,135,8,A,\N
Redwood Falls Municipal Airport,Redwood Falls,United States,RWF,KRWF,44.5471993,-95.0822983,1024,\N,\N,\N
Redstone Army Air Field,Redstone,United States,HUA,KHUA,34.6786995,-86.6847992,684,-6,A,America/Chicago
Redlands Municipal Airport,Redlands,United States,\N,KREI,34.0853004,-117.146004,1571,-8,A,America/Los_Angeles
Redding Municipal Airport,Redding,United States,RDD,KRDD,40.5089989,-122.292999,505,-8,A,America/Los_Angeles
Red Dog Airport,Red Dog,United States,RDB,PADG,68.0320969,-162.899002,969,-9,A,\N
Red Bluff Municipal Airport,Red Bluff,United States,RBL,KRBL,40.1506996,-122.251999,352,-8,A,America/Los_Angeles
Reading Regional Carl A Spaatz Field,Reading,United States,RDG,KRDG,40.3785019,-75.9652023,344,-5,A,America/New_York
Rawlins Municipal Airport/Harvey Field,Rawlins,United States,RWL,KRWL,41.8055992,-107.199997,6813,-7,A,America/Denver
Raton Municipal-Crews Field,Raton,United States,RTN,KRTN,36.7415009,-104.501999,6352,-6,A,\N
Rapid City Regional Airport,Rapid City,United States,RAP,KRAP,44.0452995,-103.056999,3204,-7,A,America/Denver
Range Regional Airport,Hibbing,United States,HIB,KHIB,47.3866005,-92.8389969,1354,-6,A,America/Chicago
Randolph Air Force Base,San Antonio,United States,RND,KRND,29.5296993,-98.2789002,761,-6,A,America/Chicago
Rancho San Simeon Airport,Cambria,United States,\N,66CA,35.6077003,-121.110001,320,-8,A,America/Los_Angeles
Rancho Murieta Airport,Rancho Murieta,United States,\N,KRIU,38.4868011,-121.102997,141,-8,A,America/Los_Angeles
Ramona Airport,Ramona,United States,\N,KRNM,33.0392,-116.915001,1395,-8,A,America/Los_Angeles
Ralph Wien Memorial Airport,Kotzebue,United States,OTZ,PAOT,66.884697,-162.598999,14,-9,A,America/Anchorage
Ralph Wenz Field,Pinedale,United States,PWY,KPNA,42.7955017,-109.806999,7102,\N,\N,\N
Raleigh Durham International Airport,Raleigh-durham,United States,RDU,KRDU,35.8776016,-78.7874985,435,-5,A,America/New_York
Raleigh County Memorial Airport,Beckley,United States,BKW,KBKW,37.7873001,-81.1241989,2504,-5,A,America/New_York
Quonset State Airport,North Kingstown,United States,NCO,KOQU,41.5970993,-71.4121017,18,-5,A,America/New_York
Quinhagak Airport,Quinhagak,United States,KWN,PAQH,59.7551,-161.845,42,-9,A,America/Anchorage
Quincy Regional Baldwin Field,Quincy,United States,UIN,KUIN,39.9426994,-91.194603,768,-6,A,America/Chicago
Quantico MCAF /Turner field,Quantico,United States,\N,KNYG,38.5017014,-77.3052979,10,-5,A,America/New_York
Quakertown Airport,Quakertown,United States,UKT,KUKT,40.4351997,-75.381897,526,-5,A,\N
Quad City International Airport,Moline,United States,MLI,KMLI,41.4485016,-90.5074997,590,-6,A,America/Chicago
Purdue University Airport,Lafayette,United States,LAF,KLAF,40.4123001,-86.9368973,606,-5,A,America/New_York
Pullman Moscow Regional Airport,Pullman,United States,PUW,KPUW,46.7439,-117.110001,2556,-8,A,America/Los_Angeles
Pueblo Memorial Airport,Pueblo,United States,PUB,KPUB,38.2891006,-104.497002,4726,-7,A,America/Denver
Pryor Field Regional Airport,Decatur,United States,DCU,KDCU,34.6526985,-86.9453964,592,-6,A,\N
Provo Municipal Airport,Provo,United States,PVU,KPVU,40.2192001,-111.723,4497,-7,A,America/Denver
Provincetown Municipal Airport,Provincetown,United States,PVC,KPVC,42.0718994,-70.2213974,9,-5,A,America/New_York
Prosser Airport,Prosser,United States,\N,KS40,46.2134018,-119.791,697,-8,A,America/Los_Angeles
Prospect Creek Airport,Prospect Creek,United States,PPC,PAPR,66.8141022,-150.643997,1095,-9,A,America/Anchorage
Prineville Airport,Prineville,United States,PRZ,KS39,44.2869987,-120.903999,3250,-8,A,America/Los_Angeles
Princeton Municipal Airport,Princeton,United States,\N,KPNM,45.5598984,-93.6082001,980,-6,A,America/Chicago
Price County Airport,Phillips,United States,\N,KPBH,45.7089996,-90.4024963,1497,-6,A,America/Chicago
Pratt Regional Airport,Pratt,United States,PTT,KPTT,37.7015991,-98.7469025,1953,-5,A,\N
Prairie Du Chien Municipal Airport,Prairie du Chien,United States,PCD,KPDC,43.0192986,-91.123703,661,-6,A,\N
Potomac Airpark,Berkeley Springs,United States,\N,KW35,39.6926003,-78.1660995,412,-5,A,\N
Portsmouth International at Pease Airport,Portsmouth,United States,PSM,KPSM,43.0778999,-70.8233032,100,-5,A,America/New_York
Portland Troutdale Airport,Troutdale,United States,TTD,KTTD,45.5494003,-122.401001,39,-8,A,America/Los_Angeles
Portland International Jetport Airport,Portland,United States,PWM,KPWM,43.6461983,-70.3093033,76,-5,A,America/New_York
Portland International Airport,Portland,United States,PDX,KPDX,45.5886993,-122.598,31,-8,A,America/Los_Angeles
Portland Hillsboro Airport,Hillsboro,United States,HIO,KHIO,45.540401,-122.949997,208,-8,A,America/Los_Angeles
Porter County Municipal Airport,Valparaiso IN,United States,VPZ,KVPZ,41.4539986,-87.007103,770,-5,A,\N
Port O'Connor Private Heliport,Port O\'Connor,United States,\N,XS46,28.429725,-96.444419,8,-6,A,America/Chicago
Port Moller Airport,Cold Bay,United States,PML,PAAL,56.0060005,-160.561005,20,-9,A,America/Anchorage
Port Heiden Airport,Port Heiden,United States,PTH,PAPH,56.9590988,-158.632996,95,-9,A,America/Anchorage
Port Clarence Coast Guard Station,Port Clarence,United States,KPC,PAPC,65.2537003,-166.858994,10,-9,A,America/Anchorage
Port Angeles Cgas Airport,Port Angeles,United States,\N,KNOW,48.1414986,-123.414001,13,-8,A,America/Los_Angeles
Port Alsworth Airport,Port alsworth,United States,PTA,PALJ,60.201681,-154.325863,280,-9,A,America/Anchorage
Poplar Bluff Municipal Airport,Poplar Bluff,United States,POF,KPOF,36.7738991,-90.3248978,331,-6,A,America/Chicago
Pope Field,Fort Bragg,United States,POB,KPOB,35.1708984,-79.0145035,217,-5,A,America/New_York
Ponca City Regional Airport,Ponca City,United States,PNC,KPNC,36.7319984,-97.0998001,1008,-6,A,America/Chicago
Pompano Beach Airpark,Pompano Beach,United States,PPM,KPMP,26.2471008,-80.1110992,19,-5,A,America/New_York
Polk Army Air Field,Fort Polk,United States,POE,KPOE,31.0447998,-93.1917038,330,-6,A,America/Chicago
Point Mugu Naval Air Station (Naval Base Ventura Co),Point Mugu,United States,NTD,KNTD,34.1203003,-119.121002,13,-8,A,America/Los_Angeles
Point Lay LRRS Airport,Point Lay,United States,PIZ,PPIZ,69.7329025,-163.005005,22,-9,A,America/Anchorage
Pocono Mountains Municipal Airport,Mount Pocono,United States,MPO,KMPO,41.137503,-75.378897,1915,-5,A,\N
Pocatello Regional Airport,Pocatello,United States,PIH,KPIH,42.9098015,-112.596001,4452,-7,A,America/Denver
Plymouth Municipal Airport,Plymouth,United States,PYM,KPYM,41.909,-70.728798,148,-5,A,America/New_York
Plattsburgh International Airport,Plattsburgh,United States,PBG,KPBG,44.6509018,-73.4681015,234,-5,A,America/New_York
Platinum Airport,Port Moller,United States,PTU,PAPM,59.0113983,-161.820007,15,-9,A,America/Anchorage
Plantation Airpark,Sylvania,United States,\N,KJYL,32.6453018,-81.5970993,188,-5,A,America/New_York
Pittsburgh International Airport,Pittsburgh,United States,PIT,KPIT,40.4915009,-80.2329025,1203,-5,A,America/New_York
Pitt Greenville Airport,Greenville,United States,PGV,KPGV,35.6352005,-77.3852997,26,-5,A,America/New_York
"Pine Bluff Regional Airport, Grider Field",Pine Bluff,United States,PBF,KPBF,34.1731,-91.9356,206,-6,A,America/Chicago
Pinal Airpark,Marana,United States,MZJ,KMZJ,32.510601,-111.328003,1893,-7,N,America/Phoenix
Pilot Point Airport,Pilot Point,United States,PIP,PAPN,57.5803986,-157.572006,57,-9,A,America/Anchorage
Pike County-Hatcher Field,Pikeville,United States,PVL,KPBX,37.5617981,-82.5663986,1473,-5,A,America/New_York
Pierre Regional Airport,Pierre,United States,PIR,KPIR,44.3827019,-100.286003,1744,-6,A,America/Chicago
Piedmont Triad International Airport,Greensboro,United States,GSO,KGSO,36.0978012,-79.9373016,925,-5,A,America/New_York
Pickens County Airport,Jasper,United States,\N,KJZP,34.4533997,-84.4573975,1535,-5,A,America/New_York
Phoenix-Mesa-Gateway Airport,Mesa,United States,AZA,KIWA,33.3078003,-111.654999,1382,-7,N,America/Phoenix
Phoenix Sky Harbor International Airport,Phoenix,United States,PHX,KPHX,33.4342995,-112.012001,1135,-7,N,America/Phoenix
Phoenix Goodyear Airport,Goodyear,United States,GYR,KGYR,33.4225006,-112.375999,968,-7,N,America/Phoenix
Phoenix Deer Valley Airport,Phoenix,United States,DVT,KDVT,33.6883011,-112.083,1478,-7,A,America/Phoenix
Phillips Army Air Field,Aberdeen,United States,APG,KAPG,39.466202,-76.1688,57,-5,A,America/New_York
Philip Billard Municipal Airport,Topeka,United States,TOP,KTOP,39.0686989,-95.6224976,881,-6,A,America/Chicago
Philadelphia International Airport,Philadelphia,United States,PHL,KPHL,39.8718987,-75.2410965,36,-5,A,America/New_York
Petersburg James A Johnson Airport,Petersburg,United States,PSG,PAPG,56.8017006,-132.945007,111,-9,A,America/Anchorage
Peter O Knight Airport,Tampa,United States,TPF,KTPF,27.9155998,-82.4493027,8,-5,U,\N
Person County Airport,Roxboro,United States,\N,KTDF,36.2849007,-78.9841995,609,-5,A,\N
Perryville Airport,Perryville,United States,KPV,PAPE,55.905998,-159.162993,29,-9,A,America/Anchorage
Perry Municipal Airport,Perry,United States,\N,KF22,36.385601,-97.2771988,1002,-6,A,America/Chicago
Perry Lefors Field,Pampa,United States,PPA,KPPA,35.612999,-100.996002,3245,-5,A,\N
Perry Houston County Airport,Perry,United States,\N,KPXE,32.510601,-83.7673035,418,-4,A,\N
Pensacola Regional Airport,Pensacola,United States,PNS,KPNS,30.4734001,-87.1865997,121,-6,A,America/Chicago
Pensacola Naval Air Station/Forrest Sherman Field,Pensacola,United States,NPA,KNPA,30.3526993,-87.3186035,28,-6,A,America/Chicago
Pembina Municipal Airport,Pembina,United States,PMB,KPMB,48.9425011,-97.240799,795,-6,A,America/Chicago
Pellston Regional Airport of Emmet County Airport,Pellston,United States,PLN,KPLN,45.5709,-84.7966995,721,-5,A,America/New_York
Pecos Municipal Airport,Pecos,United States,PEQ,KPEQ,31.3824005,-103.511002,2613,-6,A,America/Chicago
Peachtree City Falcon Field,Atlanta,United States,\N,KFFC,33.3572998,-84.5718002,808,-5,A,America/New_York
Patuxent River Naval Air Station (Trapnell Field),Patuxent River,United States,NHK,KNHK,38.285999,-76.411797,39,-5,A,America/New_York
Patrick Air Force Base,Coco Beach,United States,COF,KCOF,28.2348995,-80.6100998,8,-5,A,America/New_York
Paso Robles Municipal Airport,Paso Robles,United States,PRB,KPRB,35.6729012,-120.626999,840,-8,A,\N
Pangborn Memorial Airport,Wenatchee,United States,EAT,KEAT,47.3988991,-120.207001,1249,-8,A,America/Los_Angeles
Panama City-Bay Co International Airport,Panama City,United States,PFN,KPFN,30.212099,-85.6828,20,-6,A,America/Chicago
Palo Alto Airport of Santa Clara County,Palo Alto,United States,PAO,KPAO,37.4611015,-122.114998,4,-8,A,America/Los_Angeles
Palmdale Regional/USAF Plant 42 Airport,Palmdale,United States,PMD,KPMD,34.6293984,-118.084999,2543,-8,A,America/Los_Angeles
Palm Springs International Airport,Palm Springs,United States,PSP,KPSP,33.8297005,-116.507004,477,-8,A,America/Los_Angeles
Palm Beach International Airport,West Palm Beach,United States,PBI,KPBI,26.6832008,-80.0955963,19,-5,A,America/New_York
Palm Beach County Park Airport,West Palm Beach,United States,LNA,KLNA,26.5930004,-80.0850983,14,-5,A,America/New_York
Palm Beach County Glades Airport,Pahokee,United States,PHK,KPHK,26.7849999,-80.6933975,16,-5,A,America/New_York
Palacios Municipal Airport,Palacios,United States,PSX,KPSX,28.7275009,-96.2509995,14,-6,A,America/Chicago
Page Municipal Airport,Page,United States,PGA,KPGA,36.9261017,-111.447998,4316,-7,A,America/Phoenix
Page Field,Fort Myers,United States,FMY,KFMY,26.5865994,-81.8632965,17,-5,A,America/New_York
Ozona Municipal Airport,Ozona,United States,OZA,KOZA,30.7353001,-101.203003,2381,-6,A,America/Chicago
Ozark Regional Airport,Mountain Home,United States,WMH,KBPK,36.3689003,-92.4704971,928,\N,\N,\N
Oxnard Airport,Oxnard,United States,OXR,KOXR,34.2008018,-119.207001,45,-8,A,America/Los_Angeles
Owensboro Daviess County Airport,Owensboro,United States,OWB,KOWB,37.7401009,-87.1668015,407,-6,A,America/Chicago
Ottumwa Regional Airport,Ottumwa,United States,OTM,KOTM,41.1066017,-92.4478989,845,\N,\N,\N
Oswego County Airport,Fulton,United States,\N,KFZY,43.3507996,-76.3880997,475,-4,A,\N
Oscoda Wurtsmith Airport,Oscoda,United States,OSC,KOSC,44.451599,-83.394096,633,-5,A,America/New_York
Oryol Yuzhny Airport,Oakley,United States,OEL,UUOR,52.9347,36.0022011,656,-5,A,\N
Ormond Beach Municipal Airport,Ormond Beach,United States,\N,KOMN,29.3006001,-81.1136017,29,-5,A,America/New_York
Orlando Sanford International Airport,Sanford,United States,SFB,KSFB,28.7775993,-81.2375031,55,-5,A,America/New_York
Orlando International Airport,Orlando,United States,MCO,KMCO,28.4293995,-81.3089981,96,-5,A,America/New_York
Orlando Executive Airport,Orlando,United States,ORL,KORL,28.5455,-81.332901,113,-5,A,America/New_York
Orcas Island Airport,Eastsound,United States,ESD,KORS,48.7081985,-122.910004,31,-8,A,America/Los_Angeles
Orangeburg Municipal Airport,Orangeburg,United States,OGB,KOGB,33.4567986,-80.8594971,195,\N,\N,\N
Orange County Airport,Montgomery,United States,MGJ,KMGJ,41.5099983,-74.2646027,364,-5,A,America/New_York
Opa-locka Executive Airport,Miami,United States,OPF,KOPF,25.907,-80.278397,8,-5,A,America/New_York
Ontario Municipal Airport,Ontario,United States,ONO,KONO,44.0205002,-117.014,2193,-7,A,America/Denver
Ontario International Airport,Ontario,United States,ONT,KONT,34.0559998,-117.600998,944,-8,A,America/Los_Angeles
One Police Plaza Heliport,New York,United States,\N,NK39,40.7126007,-73.9996033,244,-5,A,America/New_York
Olympia Regional Airport,Olympia,United States,OLM,KOLM,46.9693985,-122.903,209,-8,A,America/Los_Angeles
Olive Branch Airport,Olive Branch,United States,OLV,KOLV,34.9786987,-89.7869034,402,-6,A,America/Chicago
Old Rhinebeck Airport,Rhinebeck,United States,\N,NY94,41.9715004,-73.8628998,323,-5,U,America/New_York
Okmulgee Regional Airport,Okmulgee,United States,OKM,KOKM,35.6680984,-95.9487,720,-6,A,America/Chicago
Okeechobee County Airport,Okeechobee,United States,OBE,KOBE,27.2628002,-80.8498001,34,-5,A,America/New_York
Ohio University Snyder Field,Athens,United States,ATO,KUNI,39.2109985,-82.2313995,766,-5,U,America/New_York
Ogdensburg International Airport,Ogdensburg,United States,OGS,KOGS,44.6819,-75.4654999,297,-5,A,America/New_York
Ogden Hinckley Airport,Ogden,United States,OGD,KOGD,41.1959,-112.012001,4473,-7,A,America/Denver
Offutt Air Force Base,Omaha,United States,OFF,KOFF,41.1183014,-95.9124985,1052,-6,A,America/Chicago
Oconomowoc Airport,Oconomowoc,United States,\N,0WI8,43.1389008,-88.4722977,885,-6,A,America/Chicago
Oconee County Regional Airport,Clemson,United States,CEU,KCEU,34.6719017,-82.8864975,892,-5,A,America/New_York
Oceana Naval Air Station,Oceana,United States,NTU,KNTU,36.820702,-76.033501,23,-5,A,America/New_York
Ocean Reef Club Airport,Ocean Reef Club Airport,United States,OCA,07FA,25.3253994,-80.2748032,8,-5,A,America/New_York
Ocala International Airport - Jim Taylor Field,Ocala,United States,OCF,KOCF,29.1725998,-82.2241974,90,-5,A,America/New_York
Oakland Troy Airport,Troy,United States,\N,KVLL,42.5429001,-83.1779022,727,-5,A,\N
Oakland County International Airport,Pontiac,United States,PTK,KPTK,42.6655006,-83.4200974,980,-5,A,America/New_York
Nulato Airport,Nulato,United States,NUL,PANU,64.729301,-158.074005,399,-9,A,America/Anchorage
Nuiqsut Airport,Nuiqsut,United States,NUI,PAQT,70.2099991,-151.005997,38,-9,A,America/Anchorage
Norwood Memorial Airport,Norwood,United States,OWD,KOWD,42.1904984,-71.1728973,49,-5,A,America/New_York
Northwest Florida Beaches International Airport,Panama City,United States,ECP,KECP,30.357106,-85.795414,69,-6,A,America/Chicago
Northwest Arkansas Regional Airport,Bentonville,United States,XNA,KXNA,36.281898,-94.306801,1287,-6,A,America/Chicago
Northwest Alabama Regional Airport,Muscle Shoals,United States,MSL,KMSL,34.7453003,-87.610199,551,-6,A,America/Chicago
Northway Airport,Northway,United States,ORT,PAOR,62.9612999,-141.929001,1715,-9,A,America/Anchorage
Northern Maine Regional Airport at Presque Isle,Presque Isle,United States,PQI,KPQI,46.6889992,-68.0447998,534,-5,A,America/New_York
Northern Colorado Regional Airport,Fort Collins,United States,FNL,KFNL,40.451804,-105.011,5016,-7,A,America/Denver
Northern Aroostook Regional Airport,Frenchville,United States,WFK,KFVE,47.2854996,-68.3127975,988,-5,A,America/New_York
Northeast Philadelphia Airport,Philadelphia,United States,PNE,KPNE,40.081902,-75.010597,120,-5,A,America/New_York
Northeast Iowa Regional Airport,Charles City,United States,CCY,KCCY,43.0726013,-92.6108017,1125,\N,\N,\N
Northeast Florida Regional Airport,St. Augustine Airport,United States,UST,KSGJ,29.9592,-81.339798,10,-5,A,America/New_York
Northeast Alabama Regional Airport,Gadsden,United States,GAD,KGAD,33.972599,-86.088996,569,-6,A,America/Chicago
North Platte Regional Airport Lee Bird Field,North Platte,United States,LBF,KLBF,41.1262016,-100.683998,2777,-6,A,America/Chicago
North Perry Airport,Hollywood,United States,HWO,KHWO,26.0012,-80.2407,8,-5,A,America/New_York
North Las Vegas Airport,Las Vegas,United States,VGT,KVGT,36.210701,-115.194,2205,-8,U,America/Los_Angeles
North Island Naval Air Station-Halsey Field,San Diego,United States,NZY,KNZY,32.6991997,-117.214996,26,-8,A,America/Los_Angeles
North Central West Virginia Airport,Clarksburg,United States,CKB,KCKB,39.2966003,-80.2281036,1217,-5,A,America/New_York
North Central State Airport,Smithfield,United States,SFZ,KSFZ,41.9207993,-71.4914017,441,-5,A,America/New_York
Norman Y. Mineta San Jose International Airport,San Jose,United States,SJC,KSJC,37.362598,-121.929001,62,-8,A,America/Los_Angeles
Norfolk Naval Station (Chambers Field),Norfolk,United States,NGU,KNGU,36.937599,-76.289299,17,-5,A,America/New_York
Norfolk International Airport,Norfolk,United States,ORF,KORF,36.8945999,-76.2012024,26,-5,A,America/New_York
Nondalton Airport,Nondalton,United States,NNL,PANO,59.9802017,-154.839005,314,-9,A,America/Anchorage
Nome Airport,Nome,United States,OME,PAOM,64.5121994,-165.445007,37,-9,A,America/Anchorage
Nogales International Airport,Nogales,United States,OLS,KOLS,31.4177,-110.848,3955,-7,A,America/Phoenix
Noatak Airport,Noatak,United States,WTK,PAWN,67.5661011,-162.975006,88,-9,A,America/Anchorage
Nikolski Air Station,Nikolski,United States,IKO,PAKO,52.9416008,-168.848999,77,-9,A,America/Anchorage
Nikolai Airport,Nikolai,United States,NIB,PAFS,63.0186,-154.358002,441,-9,A,America/Anchorage
Nightmute Airport,Nightmute,United States,NME,PAGT,60.4710007,-164.701004,4,-9,A,America/Anchorage
Niagara Falls International Airport,Niagara Falls,United States,IAG,KIAG,43.1072998,-78.9461975,589,-5,A,America/New_York
Newton City-County Airport,Newton,United States,EWK,KEWK,38.0582008,-97.274498,1533,-6,A,America/Chicago
Newport News Williamsburg International Airport,Newport News,United States,PHF,KPHF,37.1319008,-76.4929962,42,-5,A,America/New_York
Newport Municipal Airport,Newport,United States,ONP,KONP,44.580399,-124.057999,160,-8,A,America/Los_Angeles
Newnan Coweta County Airport,Newnan,United States,\N,KCCO,33.3115997,-84.7697983,970,-5,A,America/New_York
Newark Liberty International Airport,Newark,United States,EWR,KEWR,40.6925011,-74.1687012,18,-5,A,America/New_York
New Stuyahok Airport,New Stuyahok,United States,KNW,PANW,59.4499016,-157.328003,364,-9,A,America/Anchorage
New Smyrna Beach Municipal Airport,New Smyrna Beach,United States,\N,KEVB,29.0557003,-80.9488983,10,-5,A,\N
New River MCAS /H/ /Mccutcheon Fld/ Airport,Jacksonville,United States,\N,KNCA,34.7084007,-77.4396973,26,-5,A,America/New_York
New Richmond Regional Airport,New Richmond,United States,\N,KRNH,45.1483002,-92.5381012,998,\N,\N,\N
New Orleans NAS JRB/Alvin Callender Field,New Orleans,United States,NBG,KNBG,29.8253002,-90.0350037,2,-6,A,America/Chicago
New Century Aircenter Airport,Olathe,United States,JCI,KIXD,38.8308983,-94.8902969,1087,-6,A,America/Chicago
New Castle Henry Co. Municipal Airport,New Castle,United States,\N,KUWL,39.8759003,-85.3264999,1088,-4,A,\N
New Castle Airport,Wilmington,United States,ILG,KILG,39.6786995,-75.6064987,80,-5,A,America/New_York
New Bedford Regional Airport,New Bedford,United States,EWB,KEWB,41.6761017,-70.9569016,80,-5,A,America/New_York
Neodesha Municipal Airport,Neodesha,United States,\N,K2K7,37.4353981,-95.6461029,841,-5,A,\N
Nenana Municipal Airport,Nenana,United States,ENN,PANN,64.5473022,-149.074005,362,\N,\N,\N
Nelson Lagoon Airport,Nelson Lagoon,United States,NLG,PAOU,56.0074997,-161.160004,14,-9,A,America/Anchorage
Nellis Air Force Base,Las Vegas,United States,LSV,KLSV,36.2361984,-115.033997,1870,-8,A,America/Los_Angeles
Needles Airport,Needles,United States,EED,KEED,34.7663002,-114.623001,983,\N,\N,\N
Naval Station Mayport (Admiral David L. Mcdonald Field),Mayport,United States,NRB,KNRB,30.3910999,-81.4246979,15,\N,\N,\N
Naval Air Station Key West/Boca Chica Field,Key West,United States,NQX,KNQX,24.5757999,-81.6889038,6,-5,A,America/New_York
Nashville International Airport,Nashville,United States,BNA,KBNA,36.1245003,-86.6781998,599,-6,A,America/Chicago
Nappanee Municipal Airport,Nappanee,United States,\N,KC03,41.4462013,-85.9347992,860,-5,A,\N
Naples Municipal Airport,Naples,United States,APF,KAPF,26.1525993,-81.7752991,8,-5,A,America/New_York
Napaskiak Airport,Napaskiak,United States,PKA,PAPK,60.7028999,-161.778,24,-9,A,America/Anchorage
Napakiak Airport,Napakiak,United States,WNA,PANA,60.6903,-161.979004,17,-9,A,America/Anchorage
Napa County Airport,Napa,United States,APC,KAPC,38.2132,-122.280998,35,-8,A,America/Los_Angeles
Nantucket Memorial Airport,Nantucket,United States,ACK,KACK,41.2531014,-70.0602036,47,-5,A,America/New_York
NAS Fort Worth JRB/Carswell Field,Dallas,United States,FWH,KNFW,32.7691994,-97.4414978,650,-6,A,America/Chicago
Myrtle Beach International Airport,Myrtle Beach,United States,MYR,KMYR,33.6796989,-78.928299,25,-5,A,America/New_York
Muskogee-Davis Regional Airport,Muskogee,United States,\N,KMKO,35.656502,-95.366699,611,-6,A,America/Chicago
Muskegon County Airport,Muskegon,United States,MKG,KMKG,43.1694984,-86.2381973,629,-5,A,America/New_York
Murray Field,Eureka,United States,EKA,KEKA,40.8033981,-124.112999,7,\N,\N,\N
Muir Army Air Field (Fort Indiantown Gap) Airport,Muir,United States,MUI,KMUI,40.434799,-76.569397,488,-5,A,America/New_York
Mt Pleasant Regional-Faison field,Mount Pleasant,United States,\N,KLRO,32.8978005,-79.782898,12,-5,A,America/New_York
Mountain Village Airport,Mountain Village,United States,MOU,PAMO,62.0954018,-163.682007,337,-9,A,America/Anchorage
Mountain Home Air Force Base,Mountain Home,United States,MUO,KMUO,43.043598,-115.872002,2996,-7,A,America/Denver
Mount Sterling Montgomery County Airport,Mount Sterling,United States,\N,KIOB,38.0581017,-83.979599,1019,-5,A,\N
Mount Airy Surry County Airport,Mount Airy,United States,\N,KMWK,36.4597015,-80.5530014,1249,-4,A,\N
Morrisville Stowe State Airport,Morrisville,United States,MVL,KMVL,44.5345993,-72.6139984,732,-5,A,America/New_York
Morristown Municipal Airport,Morristown,United States,MMU,KMMU,40.7994003,-74.4149017,187,-5,A,America/New_York
Morgantown Municipal Walter L. Bill Hart Field,Morgantown,United States,MGW,KMGW,39.6428986,-79.9162979,1248,-5,A,America/New_York
Moore County Airport,Pinehurst-Southern Pines,United States,SOP,KSOP,35.2374001,-79.3911972,455,-5,A,America/New_York
Moody Air Force Base,Valdosta,United States,VAD,KVAD,30.9678001,-83.1930008,233,-5,A,America/New_York
Monument Valley Airport,Monument Valley,United States,GMV,UT25,37.0167007,-110.200996,5192,-7,U,America/Denver
Montrose Regional Airport,Montrose CO,United States,MTJ,KMTJ,38.5098,-107.893997,5759,-7,A,America/Denver
Monticello Municipal Ellis Field,Monticello,United States,\N,KLLQ,33.6385994,-91.7509995,270,\N,\N,\N
Montgomery Regional (Dannelly Field) Airport,MONTGOMERY,United States,MGM,KMGM,32.3005981,-86.3939972,221,-6,A,America/Chicago
Montgomery County Airpark,Gaithersburg,United States,GAI,KGAI,39.1683006,-77.1660004,539,-5,A,America/New_York
Monterey Peninsula Airport,Monterey,United States,MRY,KMRY,36.5870018,-121.843002,257,-8,A,America/Los_Angeles
Montauk Airport,Montauk,United States,MTP,KMTP,41.0765,-71.920797,6,-4,A,\N
Monroe Regional Airport,Monroe,United States,MLU,KMLU,32.5108986,-92.0376968,79,-6,A,America/Chicago
Monroe Municipal Airport,Monroe,United States,\N,KEFT,42.6148987,-89.5904007,1086,-6,A,America/Chicago
Monroe County Airport,Bloomington,United States,BMG,KBMG,39.1459999,-86.6166992,846,-5,A,America/New_York
Molokai Airport,Molokai,United States,MKK,PHMK,21.1529007,-157.095993,454,-10,N,Pacific/Honolulu
Mojave Airport,Mojave,United States,MHV,KMHV,35.0593987,-118.152,2801,-8,A,America/Los_Angeles
Moffett Federal Airfield,Mountain View,United States,NUQ,KNUQ,37.4161,-122.049004,32,-8,A,America/Los_Angeles
Modesto City Co-Harry Sham Field,Modesto,United States,MOD,KMOD,37.6258011,-120.954002,97,-8,A,America/Los_Angeles
Mobridge Municipal Airport,Mobridge,United States,MBG,KMBG,45.5465012,-100.407997,1716,\N,\N,\N
Mobile Regional Airport,Mobile,United States,MOB,KMOB,30.6912003,-88.2427979,219,-6,A,America/Chicago
Mobile Downtown Airport,Mobile,United States,BFM,KBFM,30.6268005,-88.0681,26,-6,A,America/Chicago
Mobile Airport,Mobile,United States,\N,1AZ0,33.1119003,-112.268997,1261,-7,U,America/Phoenix
Mitchell Municipal Airport,Mitchell,United States,MHE,KMHE,43.7747993,-98.0385971,1304,-6,A,\N
Missoula International Airport,Missoula,United States,MSO,KMSO,46.9163017,-114.091003,3206,-7,A,America/Denver
Mission Field,Livingston-Montana,United States,LVM,KLVM,45.6994019,-110.447998,4660,-7,A,America/Denver
Miramar Marine Corps Air Station - Mitscher Field,Miramar,United States,NKX,KNKX,32.8684006,-117.142998,477,-8,A,America/Los_Angeles
Minot International Airport,Minot,United States,MOT,KMOT,48.2593994,-101.279999,1716,-6,A,America/Chicago
Minot Air Force Base,Minot,United States,MIB,KMIB,48.4156,-101.358002,1667,-6,A,America/Chicago
Minneapolis-St Paul International/Wold-Chamberlain Airport,Minneapolis,United States,MSP,KMSP,44.882,-93.221802,841,-6,A,America/Chicago
Mineral Wells Airport,Mineral Wells,United States,MWL,KMWL,32.781601,-98.0602036,974,-6,A,America/Chicago
Minchumina Airport,Lake Minchumina,United States,LMA,PAMH,63.886002,-152.302002,678,-9,A,America/Anchorage
Millville Municipal Airport,Millville,United States,MIV,KMIV,39.367802,-75.072197,85,-5,A,America/New_York
Millinocket Municipal Airport,Millinocket,United States,\N,KMLT,45.6478004,-68.6856003,408,-5,A,America/New_York
Millington-Memphis Airport,Millington,United States,NQA,KNQA,35.356701,-89.8703,320,-6,A,America/Chicago
Miller Field,Valentine,United States,VTN,KVTN,42.8577995,-100.547997,2596,\N,\N,\N
Miley Memorial Field,Big Piney,United States,BPI,KBPI,42.5850983,-110.111,6990,\N,\N,\N
Midland International Airport,Midland,United States,MAF,KMAF,31.9424992,-102.202003,2871,-6,A,America/Chicago
Middle Georgia Regional Airport,Macon,United States,MCN,KMCN,32.6927986,-83.6492004,354,-5,A,America/New_York
Mid-State Regional Airport,Philipsburg,United States,\N,KPSB,40.8843994,-78.0873032,1948,-5,A,\N
Mid Ohio Valley Regional Airport,PARKERSBURG,United States,PKB,KPKB,39.3451004,-81.4392014,858,-5,A,America/New_York
Mid Delta Regional Airport,Greenville,United States,GLH,KGLH,33.4828987,-90.9856033,131,-6,A,America/Chicago
Michigan City Municipal Airport,Michigan City,United States,MGC,KMGC,41.7033005,-86.8211975,655,-6,A,America/Chicago
Miami International Airport,Miami,United States,MIA,KMIA,25.7931995,-80.2906036,8,-5,A,America/New_York
Metropolitan Oakland International Airport,Oakland,United States,OAK,KOAK,37.721298,-122.221001,9,-8,A,America/Los_Angeles
Metlakatla Seaplane Base,Metakatla,United States,MTM,PAMM,55.131001,-131.578003,0,-9,A,America/Anchorage
Mesquite Metro Airport,Misquite,United States,\N,KHQZ,32.7470016,-96.5304031,447,-6,A,America/Chicago
Merrill Field,Anchorage,United States,MRI,PAMR,61.213501,-149.843994,137,-9,A,America/Anchorage
Merle K (Mudhole) Smith Airport,Cordova,United States,CDV,PACV,60.4917984,-145.477997,54,-9,A,America/Anchorage
Merkel Field Sylacauga Municipal Airport,Sylacauga,United States,\N,KSCD,33.1717987,-86.3054962,569,-5,A,\N
Meridian Naval Air Station,Meridian,United States,\N,KNMM,32.5521011,-88.555603,316,-6,A,America/Chicago
Meriden Markham Municipal Airport,Meriden,United States,\N,KMMK,41.5087013,-72.8294983,103,-5,A,\N
Mercer County Airport,Bluefield,United States,BLF,KBLF,37.2957993,-81.2077026,2857,-5,A,America/New_York
Merced Regional Macready Field,Merced,United States,MCE,KMCE,37.2846985,-120.514,155,-8,A,America/Los_Angeles
Menominee Regional Airport,Macon,United States,MNM,KMNM,45.126701,-87.638397,625,-6,A,America/Chicago
Memphis International Airport,Memphis,United States,MEM,KMEM,35.0424004,-89.9766998,341,-6,A,America/Chicago
Memorial Field,Hot Springs,United States,HOT,KHOT,34.4780006,-93.096199,540,-6,A,America/Chicago
Melbourne International Airport,Melbourne,United States,MLB,KMLB,28.1028004,-80.6453018,33,-5,A,America/New_York
Mekoryuk Airport,Mekoryuk,United States,MYU,PAMY,60.3713989,-166.270996,48,-9,A,America/Anchorage
Meadows Field,Bakersfield,United States,BFL,KBFL,35.4336014,-119.056999,510,-8,A,America/Los_Angeles
Meade Municipal Airport,Meade,United States,\N,KMEJ,37.2769012,-100.356003,2529,-5,A,\N
McMinn County Airport,Athens,United States,MMI,KMMI,35.3973007,-84.5625992,875,-5,N,America/New_York
McKinley National Park Airport,McKinley Park,United States,MCL,PAIN,63.7326012,-148.910995,1720,-9,A,America/Anchorage
McKellar-Sipes Regional Airport,Jackson,United States,MKL,KMKL,35.599899,-88.915604,434,-6,A,America/Chicago
McGrath Airport,Mcgrath,United States,MCG,PAMC,62.9528999,-155.606003,341,-9,A,America/Anchorage
McGhee Tyson Airport,Knoxville,United States,TYS,KTYS,35.8110008,-83.9940033,981,-5,A,America/New_York
McChord Air Force Base,Tacoma,United States,TCM,KTCM,47.1376991,-122.475998,322,-8,A,America/Los_Angeles
McCarran International Airport,Las Vegas,United States,LAS,KLAS,36.080101,-115.152,2181,-8,A,America/Los_Angeles
McCall Municipal Airport,McCall,United States,MYL,KMYL,44.8897018,-116.100998,5024,-7,A,America/Denver
Mc Pherson Airport,Mc Pherson,United States,\N,KMPR,38.3524017,-97.6912994,1498,-5,A,\N
Mc Minnville Municipal Airport,Mackminnville,United States,\N,KMMV,45.1944008,-123.136002,163,-8,A,America/Los_Angeles
Mc Guire Air Force Base,Wrightstown,United States,WRI,KWRI,40.0155983,-74.5916977,131,-5,A,America/New_York
Mc Entire Joint National Guard Base,Eastover,United States,MMT,KMMT,33.9207993,-80.8013001,254,\N,\N,\N
Mc Cook Ben Nelson Regional Airport,McCook,United States,MCK,KMCK,40.2062988,-100.592003,2583,-6,A,America/Chicago
Mc Connell Air Force Base,Wichita,United States,IAB,KIAB,37.6218987,-97.2682037,1371,-6,A,America/Chicago
Mc Comb/Pike County Airport/John E Lewis Field,Mc Comb,United States,MCB,KMCB,31.1784992,-90.4719009,413,\N,\N,\N
Mc Clellan-Palomar Airport,Carlsbad,United States,CLD,KCRQ,33.1282997,-117.279999,331,-8,A,America/Los_Angeles
Mc Clellan Airfield,Sacramento,United States,MCC,KMCC,38.6675987,-121.401001,77,-8,A,America/Los_Angeles
Mc Allen Miller International Airport,Mcallen,United States,MFE,KMFE,26.1758003,-98.2386017,107,-6,A,America/Chicago
Mc Alester Regional Airport,Mcalester,United States,MLC,KMLC,34.882401,-95.783501,770,-6,A,America/Chicago
Maxwell Air Force Base,Montgomery,United States,MXF,KMXF,32.3829,-86.365799,171,-6,A,America/Chicago
Massena International Richards Field,Massena,United States,MSS,KMSS,44.9357986,-74.8455963,215,-5,A,America/New_York
Mason County Airport,Ludington,United States,LDM,KLDM,43.9625015,-86.407898,646,-5,A,\N
Mason City Municipal Airport,Mason City,United States,MCW,KMCW,43.1577988,-93.3312988,1213,-6,A,America/Chicago
Martin State Airport,Baltimore,United States,MTN,KMTN,39.325699,-76.413803,21,-5,A,America/New_York
Martha's Vineyard Airport,Vineyard Haven MA,United States,MVY,KMVY,41.3931007,-70.6143036,67,-5,A,America/New_York
Marshfield Municipal George Harlow Field,Marshfield,United States,\N,KGHG,42.0983009,-70.6722031,11,-5,A,America/New_York
Marshfield Municipal Airport,Marshfield,United States,MFI,KMFI,44.6369019,-90.1893005,1277,-6,A,America/Chicago
Marshall Don Hunter Sr Airport,Marshall,United States,MLL,PADM,61.8642998,-162.026001,103,-9,A,America/Anchorage
Marshall Army Air Field,Fort Riley,United States,FRI,KFRI,39.0553017,-96.7645035,1065,-6,A,America/Chicago
Marquette Airport,Marquette,United States,\N,KMQT,46.5339012,-87.5614014,1424,-5,A,America/New_York
Mariposa Yosemite Airport,Mariposa,United States,RMY,KMPI,37.5108986,-120.040001,2254,-8,A,America/Los_Angeles
Marion County Regional Airport,Flippin,United States,FLP,KFLP,36.2909012,-92.5903015,719,-5,A,\N
Marion County Brown Field,Jasper,United States,APT,KAPT,35.060699,-85.585297,641,-5,A,\N
Marina Municipal Airport,Fort Ord,United States,OAR,KOAR,36.6819,-121.762001,137,-8,A,America/Los_Angeles
Marin County Airport - Gnoss Field,Novato,United States,NOT,KDVO,38.1436005,-122.556,2,-8,A,America/Los_Angeles
Marfa Municipal Airport,Marfa,United States,MRF,KMRF,30.371099,-104.017997,4849,-5,A,\N
Marco Island Executive Airport,Marco Island Airport,United States,MRK,KMKY,25.995001,-81.672501,5,-5,A,America/New_York
March ARB Airport,Riverside,United States,RIV,KRIV,33.880699,-117.259003,1536,-8,A,America/Los_Angeles
Marana Regional Airport,Tucson,United States,AVW,KAVQ,32.4095993,-111.218002,2031,-7,U,America/Phoenix
Mansfield Lahm Regional Airport,Mansfield,United States,MFD,KMFD,40.8213997,-82.5166016,1297,-5,A,America/New_York
Manokotak Airport,Manokotak,United States,KMO,PAMB,58.9902,-159.050003,100,-9,A,America/Anchorage
Manley Hot Springs Airport,Manley Hot Springs,United States,MLY,PAML,64.9975967,-150.643997,270,-9,A,America/Anchorage
Mankato Regional Airport,Mankato,United States,\N,KMKT,44.2215996,-93.9187012,1021,-6,A,\N
Manistee Co Blacker Airport,Manistee,United States,MBL,KMBL,44.2723999,-86.2469025,621,-5,A,America/New_York
Manhattan Regional Airport,Manhattan,United States,MHK,KMHK,39.1409988,-96.6707993,1057,-6,A,America/Chicago
Manchester-Boston Regional Airport,Manchester NH,United States,MHT,KMHT,42.932598,-71.435699,266,-5,A,America/New_York
Manassas Regional Airport/Harry P. Davis Field,Manassas,United States,MNZ,KHEF,38.7214012,-77.5154038,192,-5,A,America/New_York
Mammoth Yosemite Airport,Mammoth Lakes,United States,MMH,KMMH,37.6240997,-118.837997,7135,-8,A,America/Los_Angeles
Mallards Landing Airport,Locust Grove,United States,\N,GA04,33.3656998,-84.1651993,837,-5,A,America/New_York
Malcolm McKinnon Airport,Brunswick,United States,SSI,KSSI,31.1518002,-81.3912964,19,-5,A,America/New_York
Malad City Airport,Malad City,United States,\N,KMLD,42.1665993,-112.296997,4503,-7,A,America/Denver
Majors Airport,Greenvile,United States,GVT,KGVT,33.0677986,-96.0653,535,-6,A,America/Chicago
Mahlon Sweet Field,Eugene,United States,EUG,KEUG,44.1245995,-123.211998,374,-8,A,America/Los_Angeles
Madison Municipal Airport,Madison,United States,\N,K52A,33.6120987,-83.4604034,694,-5,A,America/New_York
Madison County Executive Airport-Tom Sharp Jr Field,Huntsville,United States,\N,KMDQ,34.8614006,-86.5575028,756,-6,A,America/Chicago
Madison County Airport,London,United States,\N,KUYF,39.9327011,-83.461998,1082,-5,A,\N
Madera Municipal Airport,Madera,United States,MAE,KMAE,36.9886017,-120.112,255,-8,A,America/Los_Angeles
Mac Dill Air Force Base,Tampa,United States,MCF,KMCF,27.8493004,-82.5212021,14,-5,A,America/New_York
MBS International Airport,Saginaw,United States,MBS,KMBS,43.5329018,-84.0795975,668,-5,A,America/New_York
Lynchburg Regional Preston Glenn Field,Lynchburg,United States,LYH,KLYH,37.3266983,-79.2004013,938,-5,A,America/New_York
Lumberton Regional Airport,Lumberton,United States,LBT,KLBT,34.6099014,-79.0594025,126,-5,A,America/New_York
Luke Air Force Base,Phoenix,United States,LUF,KLUF,33.5349998,-112.383003,1085,-7,A,America/Phoenix
Luce County Airport,Newberry,United States,\N,KERY,46.3111992,-85.4572983,869,-5,A,America/New_York
Lubbock Preston Smith International Airport,Lubbock,United States,LBB,KLBB,33.663601,-101.822998,3282,-6,A,America/Chicago
Lovell Field,Chattanooga,United States,CHA,KCHA,35.0353012,-85.2037964,683,-5,A,America/New_York
Louisville International Standiford Field,Louisville,United States,SDF,KSDF,38.1744,-85.736,501,-5,A,America/New_York
Louis Armstrong New Orleans International Airport,New Orleans,United States,MSY,KMSY,29.9934006,-90.2580032,4,-6,A,America/Chicago
Los Angeles International Airport,Los Angeles,United States,LAX,KLAX,33.9425011,-118.407997,125,-8,A,America/Los_Angeles
Los Alamos Airport,Los Alamos,United States,LAM,KLAM,35.8797989,-106.268997,7171,-7,A,America/Denver
Lorain County Regional Airport,Lorain-Elyria,United States,\N,KLPR,41.3442993,-82.1775971,793,-5,A,America/New_York
Lopez Island Airport,Lopez,United States,LPS,S31,48.4838982,-122.938004,209,-8,A,America/Los_Angeles
Longview Ranch Airport,Longview,United States,\N,OG39,44.6617012,-119.652,2080,-8,A,America/Los_Angeles
Long Island Mac Arthur Airport,Islip,United States,ISP,KISP,40.7952004,-73.1001968,99,-5,A,America/New_York
Long Beach /Daugherty Field/ Airport,Long Beach,United States,LGB,KLGB,33.8176994,-118.152,60,-8,A,America/Los_Angeles
London-Corbin Airport/Magee Field,London,United States,LOZ,KLOZ,37.0821991,-84.0848999,1212,-5,A,America/New_York
Lompoc Airport,Lompoc,United States,LPC,KLPC,34.6655998,-120.468002,88,-8,A,America/Los_Angeles
Logan-Cache Airport,Logan,United States,LGU,KLGU,41.7911987,-111.851997,4457,-7,A,America/Denver
Livermore Municipal Airport,Livermore,United States,LVK,KLVK,37.6934013,-121.82,400,-8,A,America/Los_Angeles
Little Rock Air Force Base,Jacksonville,United States,LRF,KLRF,34.9169006,-92.1496964,311,-6,A,America/Chicago
Linden Airport,Linden,United States,LDJ,KLDJ,40.6174011,-74.2445984,23,-5,A,America/New_York
Lincoln Regional Karl Harder Field,Lincoln,United States,\N,KLHM,38.9091988,-121.350998,121,-8,A,America/Los_Angeles
Lincoln Airport,Lincoln,United States,LNK,KLNK,40.8510017,-96.759201,1219,-6,A,America/Chicago
Lima Allen County Airport,Lima,United States,AOH,KAOH,40.706902,-84.026703,975,-5,A,America/New_York
Lihue Airport,Lihue,United States,LIH,PHLI,21.9759998,-159.339005,153,-10,N,Pacific/Honolulu
Liberal Mid-America Regional Airport,Liberal,United States,LBL,KLBL,37.0442009,-100.959999,2885,-6,A,America/Chicago
Lewistown Municipal Airport,Lewistown,United States,LWT,KLWT,47.0493011,-109.467003,4170,-7,A,America/Denver
Lewiston Nez Perce County Airport,Lewiston,United States,LWS,KLWS,46.3745003,-117.014999,1442,-8,A,America/Los_Angeles
Lewis University Airport,Lockport,United States,LOT,KLOT,41.6072998,-88.096199,679,-6,A,America/Chicago
Lemoore Naval Air Station (Reeves Field) Airport,Lemoore,United States,NLC,KNLC,36.3330002,-119.952004,232,-8,A,America/Los_Angeles
Lemhi County Airport,Salmon,United States,SMN,KSMN,45.1237984,-113.880997,4043,-7,A,America/Denver
Lehigh Valley International Airport,Allentown,United States,ABE,KABE,40.6520996,-75.4408035,393,-5,A,America/New_York
Leesburg International Airport,Leesburg,United States,LEE,KLEE,28.8230991,-81.8087006,76,-5,A,\N
Leesburg Executive Airport,Leesburg,United States,\N,KJYO,39.077999,-77.557503,389,-5,A,America/New_York
Lee Gilmer Memorial Airport,Gainesville,United States,GVL,KGVL,34.2725983,-83.8302002,1276,-5,A,America/New_York
Lee C Fine Memorial Airport,Kaiser Lake Ozark,United States,AIZ,KAIZ,38.0960007,-92.5494995,869,-6,A,America/Chicago
Lee Airport,Annapolis,United States,ANP,KANP,38.942902,-76.568398,34,-5,A,America/New_York
Lebanon Municipal Airport,Lebanon,United States,LEB,KLEB,43.6260986,-72.3041992,603,-5,A,America/New_York
Lea County Regional Airport,Hobbs,United States,HOB,KHOB,32.6875,-103.217003,3661,-7,A,America/Denver
Lawton Fort Sill Regional Airport,Lawton,United States,LAW,KLAW,34.5676994,-98.4166031,1110,-6,A,America/Chicago
Lawson Army Air Field (Fort Benning),Fort Benning,United States,LSF,KLSF,32.3372993,-84.9913025,232,-5,A,America/New_York
Lawrence Municipal Airport,Lawrence,United States,LWC,KLWC,39.0112,-95.2165985,833,-6,A,America/Chicago
Lawrence Municipal Airport,Lawrence,United States,LWM,KLWM,42.7172012,-71.1233978,148,-5,A,America/New_York
Lawrence J Timmerman Airport,Milwaukee,United States,MWC,KMWC,43.110401,-88.034401,745,-6,A,America/Chicago
Laurence G Hanscom Field,Bedford,United States,BED,KBED,42.4700012,-71.2890015,133,-5,A,America/New_York
Lathan Strip,Mocksville,United States,\N,5NC2,34.8763008,-80.6192017,575,-4,A,\N
Las Vegas Municipal Airport,Las Vegas,United States,LVS,KLVS,35.6542015,-105.141998,6877,-7,A,America/Denver
Las Vegas Helicopters Heliport,Las vegas,United States,\N,NV03,36.1081009,-115.174004,2133,-8,A,\N
Las Cruces International Airport,Las Cruces,United States,LRU,KLRU,32.2893982,-106.921997,4456,-7,A,America/Denver
Larsen Bay Airport,Larsen Bay,United States,KLN,PALB,57.535099,-153.977997,87,-9,A,America/Anchorage
Larned Pawnee County Airport,Larned,United States,\N,KLQR,38.2085991,-99.0859985,2012,-5,A,\N
Laredo International Airport,Laredo,United States,LRD,KLRD,27.5438004,-99.4616013,508,-6,A,America/Chicago
Laramie Regional Airport,Laramie,United States,LAR,KLAR,41.3120995,-105.675003,7284,-7,A,America/Denver
Lansing Municipal Airport,Lansing,United States,\N,KIGQ,41.5349007,-87.5295029,620,-6,A,America/Chicago
Langley Air Force Base,Hampton,United States,LFI,KLFI,37.082901,-76.3604965,11,-5,A,America/New_York
Lancaster Airport,Lancaster,United States,LNS,KLNS,40.1217003,-76.2960968,403,-5,A,America/New_York
Lanai Airport,Lanai,United States,LNY,PHNY,20.7856007,-156.951004,1308,-10,N,Pacific/Honolulu
Lampasas Airport,Lampasas,United States,\N,KLZZ,31.1061993,-98.1959,1215,-5,A,\N
Lamar Municipal Airport,Lamar,United States,LAA,KLAA,38.0696983,-102.688004,3706,-7,A,America/Denver
Lakeway Airpark,Lakeway,United States,\N,K3R9,30.3575001,-97.9944992,909,-6,A,America/Chicago
Lakeland-Noble F. Lee Memorial field,Minocqua - Woodruff,United States,ARV,KARV,45.9278984,-89.7309036,1629,-6,A,America/Chicago
Lakeland Linder International Airport,Lakeland,United States,LAL,KLAL,27.988899,-82.018602,142,-5,A,America/New_York
Lakehurst Maxfield Field Airport,Lakehurst,United States,NEL,KNEL,40.0332985,-74.353302,101,-5,A,America/New_York
Lakefront Airport,New Orleans,United States,NEW,KNEW,30.0424004,-90.0282974,8,-6,A,America/Chicago
Lake Tahoe Airport,South Lake Tahoe,United States,TVL,KTVL,38.8939018,-119.995003,6264,-8,A,America/Los_Angeles
Lake Placid Airport,Lake Placid,United States,LKP,KLKP,44.2644997,-73.9618988,1747,-5,A,America/New_York
Lake Hood Airport,Anchorage,United States,\N,PALH,61.186946,-149.965442,73,-9,A,America/Anchorage
Lake Havasu City Airport,Lake Havasu City,United States,HII,KHII,34.571098,-114.358002,783,-7,N,America/Phoenix
Lake Cumberland Regional Airport,Somerset,United States,SME,KSME,37.0533981,-84.6158981,927,-5,A,America/New_York
Lake County Airport,Lakeview,United States,LKV,KLKV,42.1610985,-120.399002,4733,-8,A,America/Los_Angeles
Lake City Gateway Airport,Lake City,United States,LCQ,KLCQ,30.1819992,-82.5768967,201,-5,A,America/New_York
Lake Charles Regional Airport,Lake Charles,United States,LCH,KLCH,30.1261005,-93.2232971,15,-6,A,America/Chicago
Lago Vista Tx Rusty Allen Airport,Lago Vista,United States,\N,KRYW,30.4986,-97.9694977,1231,-6,A,America/Chicago
Lafayette Regional Airport,Lafayette,United States,LFT,KLFT,30.2052994,-91.9876022,42,-6,A,America/Chicago
Ladd AAF Airfield,Fort Wainwright,United States,FBK,PAFB,64.8375015,-147.613998,454,-9,A,America/Anchorage
Lackland Air Force Base,San Antonio,United States,SKF,KSKF,29.3841991,-98.5811005,691,-6,A,America/Chicago
LaGrange Callaway Airport,LaGrange,United States,LGC,KLGC,33.0089,-85.072601,693,-5,A,America/New_York
La Junta Municipal Airport,La Junta,United States,\N,KLHX,38.0497017,-103.509003,4229,-7,A,America/Denver
La Guardia Airport,New York,United States,LGA,KLGA,40.7771988,-73.8725967,21,-5,A,America/New_York
La Grande/Union County Airport,La Grande,United States,LGD,KLGD,45.2901993,-118.007004,2717,-7,A,\N
La Crosse Municipal Airport,La Crosse,United States,LSE,KLSE,43.879002,-91.256699,655,-6,A,America/Chicago
L M Clayton Airport,Wolf Point,United States,OLF,KOLF,48.0945015,-105.574997,1986,-7,A,America/Denver
Kwigillingok Airport,Kwigillingok,United States,KWK,PAGG,59.876499,-163.169005,18,-9,A,America/Anchorage
Kwethluk Airport,Kwethluk,United States,KWT,PFKW,60.7902985,-161.444,25,-9,A,America/Anchorage
Koyukuk Airport,Koyukuk,United States,KYU,PFKU,64.8760986,-157.727005,149,-9,A,America/Anchorage
Koyuk Alfred Adams Airport,Koyuk,United States,KKA,PAKK,64.9394989,-161.154007,154,-9,A,America/Anchorage
Kotlik Airport,Kotlik,United States,KOT,PFKO,63.0306015,-163.533005,15,-9,A,America/Anchorage
Kongiganak Airport,Kongiganak,United States,KKH,PADY,59.9608002,-162.880997,30,-9,A,America/Anchorage
Koliganek Airport,Koliganek,United States,KGK,PAJZ,59.7266006,-157.259003,269,-9,A,America/Anchorage
Kokomo Municipal Airport,Kokomo,United States,OKK,KOKK,40.5281982,-86.0589981,830,-4,A,\N
Kodiak Airport,Kodiak,United States,ADQ,PADQ,57.75,-152.494003,78,-9,A,America/Anchorage
Kobuk Airport,Kobuk,United States,OBU,PAOB,66.9123001,-156.897003,137,-9,A,America/Anchorage
Knoxville Downtown Island Airport,Knoxville,United States,\N,KDKX,35.9639015,-83.8739014,833,-5,A,America/New_York
Knox County Regional Airport,Rockland,United States,RKD,KRKD,44.0601006,-69.0991974,56,-5,A,America/New_York
Klawock Seaplane Base,Klawock,United States,\N,PAQC,55.5546989,-133.102005,0,-9,A,America/Anchorage
Klawock Airport,Klawock,United States,KLW,PAKW,55.5792007,-133.076004,80,-9,A,America/Anchorage
Kivalina Airport,Kivalina,United States,KVL,PAVL,67.7361984,-164.563004,13,-9,A,America/Anchorage
Kissimmee Gateway Airport,Kissimmee,United States,ISM,KISM,28.2898006,-81.4371033,82,-5,A,America/New_York
Kirksville Regional Airport,Kirksville,United States,IRK,KIRK,40.0934982,-92.544899,966,-6,A,America/Chicago
Kipnuk Airport,Kipnuk,United States,KPN,PAKI,59.9329987,-164.031006,11,-9,A,America/Anchorage
Kinston Regional Jetport At Stallings Field,Kinston,United States,ISO,KISO,35.3314018,-77.6088028,93,-5,A,America/New_York
Kingsville Naval Air Station,Kingsville,United States,NQI,KNQI,27.5072002,-97.8097,50,-6,A,America/Chicago
King Salmon Airport,King Salmon,United States,AKN,PAKN,58.6767998,-156.649002,73,-9,A,America/Anchorage
King Ranch Airport,Sutton,United States,\N,AK59,61.7956009,-148.354996,1350,-8,A,\N
King Cove Airport,King Cove,United States,KVC,PAVC,55.1162987,-162.266006,155,-9,A,America/Anchorage
Kimble County Airport,Junction,United States,JCT,KJCT,30.5112991,-99.7634964,1749,\N,\N,\N
Key West International Airport,Key West,United States,EYW,KEYW,24.5561008,-81.7595978,3,-5,A,America/New_York
Key Field,Meridian,United States,MEI,KMEI,32.3325996,-88.7518997,297,-6,A,America/Chicago
Ketchikan International Airport,Ketchikan,United States,KTN,PAKT,55.3555985,-131.714005,89,-9,A,America/Anchorage
Kestrel Airpark,San Antonio,United States,\N,K1T7,29.8127003,-98.4253006,1250,-6,A,America/Chicago
Kerrville Municipal Louis Schreiner Field,Kerrville,United States,ERV,KERV,29.9766998,-99.085701,1617,-6,A,America/Chicago
Keokuk Municipal Airport,Keokuk,United States,EOK,KEOK,40.4598999,-91.4284973,671,-6,A,America/Chicago
Kenosha Regional Airport,Kenosha,United States,ENW,KENW,42.5956993,-87.927803,742,-6,A,America/Chicago
Kendall-Tamiami Executive Airport,Kendall-tamiami,United States,TMB,KTMB,25.6478996,-80.4328003,8,-5,A,America/New_York
Kenai Municipal Airport,Kenai,United States,ENA,PAEN,60.573101,-151.244995,99,-9,A,America/Anchorage
Keesler Air Force Base,Biloxi,United States,BIX,KBIX,30.4104004,-88.9244003,33,-6,A,America/Chicago
Kee Field,Pineville,United States,\N,KI16,37.600399,-81.5593033,1783,-5,A,\N
Kasigluk Airport,Kasigluk,United States,KUK,PFKA,60.8744011,-162.524002,48,-9,A,America/Anchorage
Karluk Airport,Karluk,United States,KYK,PAKY,57.5671005,-154.449997,137,-9,A,America/Anchorage
Karl Stefan Memorial Airport,Norfolk Nebraska,United States,OFK,KOFK,41.9855003,-97.4350967,1573,-6,A,\N
Kapalua Airport,Lahania-kapalua,United States,JHM,PHJH,20.9629002,-156.673004,256,-10,N,Pacific/Honolulu
Kansas City International Airport,Kansas City,United States,MCI,KMCI,39.2976,-94.713898,1026,-6,A,America/Chicago
Kaneohe Bay MCAS (Marion E. Carl Field) Airport,Kaneohe Bay,United States,NGF,PHNG,21.4505005,-157.768005,24,-10,A,Pacific/Honolulu
Kaltag Airport,Kaltag,United States,KAL,PAKV,64.3190994,-158.740997,181,-9,A,America/Anchorage
Kalskag Airport,Kalskag,United States,KLG,PALG,61.5363007,-160.341003,55,-9,A,America/Anchorage
Kalaupapa Airport,Molokai,United States,LUP,PHLU,21.2110004,-156.973999,24,-10,A,Pacific/Honolulu
Kalamazoo Battle Creek International Airport,Kalamazoo,United States,AZO,KAZO,42.2349014,-85.5521011,874,-5,A,America/New_York
Kalaeloa Airport,Kapolei,United States,JRF,PHJR,21.3074,-158.070009,30,-10,U,Pacific/Honolulu
Kake Airport,Kake,United States,\N,PAFE,56.9613991,-133.910004,172,-9,A,America/Anchorage
Kahului Airport,Kahului,United States,OGG,PHOG,20.8986,-156.429993,54,-10,N,Pacific/Honolulu
Juneau International Airport,Juneau,United States,JNU,PAJN,58.3549995,-134.576004,21,-9,A,America/Anchorage
Julian Carroll Airport,Jackson,United States,\N,KJKL,37.5938988,-83.3172989,1381,\N,\N,\N
Joslin Field Magic Valley Regional Airport,Twin Falls,United States,TWF,KTWF,42.4818,-114.487999,4154,-7,A,America/Denver
Joseph A. Hardy Connellsville Airport,Connellsville,United States,\N,KVVS,39.9592018,-79.6570969,1267,-5,A,America/New_York
Joplin Regional Airport,Joplin,United States,JLN,KJLN,37.1517982,-94.4982986,981,-6,A,America/Chicago
Jonesboro Municipal Airport,Jonesboro,United States,JBR,KJBR,35.8316994,-90.6464005,262,-6,A,America/Chicago
Joliet Regional Airport,Joliet,United States,JOT,KJOT,41.5177994,-88.175499,582,-6,A,America/Chicago
Joint Base Andrews,Camp Springs,United States,ADW,KADW,38.810799,-76.866997,280,-5,A,America/New_York
Johnson County Executive Airport,Olathe,United States,OJC,KOJC,38.847599,-94.7376022,1096,-6,A,America/Chicago
John Wayne Airport-Orange County Airport,Santa Ana,United States,SNA,KSNA,33.6757011,-117.867996,56,-8,A,America/Los_Angeles
John Murtha Johnstown Cambria County Airport,Johnstown,United States,JST,KJST,40.3161011,-78.8339005,2284,-5,A,America/New_York
John H Batten Airport,Racine,United States,RAC,KRAC,42.760601,-87.8152008,674,-6,A,America/Chicago
John Glenn Columbus International Airport,Columbus,United States,CMH,KCMH,39.998001,-82.891899,815,-5,A,America/New_York
John F Kennedy International Airport,New York,United States,JFK,KJFK,40.639801,-73.7789002,13,-5,A,America/New_York
John C Tune Airport,Nashville,United States,\N,KJWN,36.1823997,-86.8867035,495,-5,A,\N
Joe Foss Field Airport,Sioux Falls,United States,FSD,KFSD,43.5820007,-96.7418976,1429,-6,A,America/Chicago
Jimmy Carter Regional Airport,Americus,United States,\N,KACJ,32.110802,-84.188904,468,-5,A,America/New_York
Jim Kelly Field,Lexington,United States,LXN,KLXN,40.7910004,-99.777298,2413,-5,A,\N
Jim Hamilton L.B. Owens Airport,Columbia,United States,CUB,KCUB,33.9705009,-80.9952011,193,-4,A,\N
Jesup Wayne County Airport,Jesup,United States,\N,KJES,31.5540009,-81.8824997,107,-5,A,America/New_York
Jefferson City Memorial Airport,Jefferson City,United States,JEF,KJEF,38.5912018,-92.1560974,549,-6,A,America/Chicago
Jasper County Airport-Bell Field,Jasper,United States,JAS,KJAS,30.8857002,-94.0348969,213,-5,A,\N
Jasper County Airport,Rensselaer,United States,RNZ,KRZL,40.9478989,-87.1826019,698,-5,A,\N
Jamestown Regional Airport,Jamestown,United States,JMS,KJMS,46.9296989,-98.6781998,1500,-6,A,America/Chicago
James M Cox Dayton International Airport,Dayton,United States,DAY,KDAY,39.902401,-84.2193985,1009,-5,A,America/New_York
Jacqueline Cochran Regional Airport,Palm Springs,United States,TRM,KTRM,33.6267014,-116.160004,-115,-8,A,America/Los_Angeles
Jacksonville Naval Air Station (Towers Field),Jacksonville,United States,NIP,KNIP,30.2358,-81.680603,21,-5,A,America/New_York
Jacksonville International Airport,Jacksonville,United States,JAX,KJAX,30.4941006,-81.6878967,30,-5,A,America/New_York
Jacksonville Executive at Craig Airport,Jacksonville,United States,CRG,KCRG,30.3362999,-81.5143967,41,\N,\N,\N
Jackson-Medgar Wiley Evers International Airport,Jackson,United States,JAN,KJAN,32.3111992,-90.0758972,346,-6,A,America/Chicago
Jackson Hole Airport,Jacksn Hole,United States,JAC,KJAC,43.6072998,-110.737999,6451,-7,A,America/Denver
Jackson County Reynolds Field,Jackson,United States,JXN,KJXN,42.2598,-84.4593964,1001,-5,A,America/New_York
Jack Northrop Field Hawthorne Municipal Airport,Hawthorne,United States,HHR,KHHR,33.922798,-118.334999,66,-8,A,America/Los_Angeles
Jack Mc Namara Field Airport,Crescent City,United States,CEC,KCEC,41.780201,-124.237,61,-8,A,America/Los_Angeles
Jack Edwards Airport,Gulf Shores,United States,GUF,KJKA,30.2905006,-87.6717987,17,-6,A,America/Chicago
Ithaca Tompkins Regional Airport,Ithaca,United States,ITH,KITH,42.4910011,-76.4583969,1099,-5,A,America/New_York
Iraan Municipal Airport,Iraan,United States,IRB,K2F0,30.9057007,-101.891998,2200,-6,A,America/Chicago
Iowa County Airport,MINERAL POINT,United States,\N,KMRJ,42.886799,-90.236198,1171,-5,A,\N
Iowa City Municipal Airport,Iowa City,United States,IOW,KIOW,41.6391983,-91.5465012,668,-6,A,America/Chicago
Iosco County Airport,East Tawas,United States,ECA,K6D9,44.312801,-83.422302,606,-5,A,America/New_York
Inyokern Airport,Inyokern,United States,IYK,KIYK,35.6587982,-117.830002,2457,-8,A,America/Los_Angeles
Indianola Municipal Airport,New York,United States,\N,KIDL,33.485699,-90.678902,126,-6,A,America/Chicago
Indianapolis Metropolitan Airport,Indianapolis,United States,\N,KUMP,39.9351997,-86.0449982,811,-5,A,America/New_York
Indianapolis International Airport,Indianapolis,United States,IND,KIND,39.7173,-86.294403,797,-5,A,America/New_York
Indian Mountain LRRS Airport,Indian Mountains,United States,UTO,PAIM,65.9927979,-153.703995,1273,-9,A,America/Anchorage
Independence Municipal Airport,Independence,United States,IDP,KIDP,37.1584015,-95.7783966,825,-5,A,\N
Imperial County Airport,Imperial,United States,IPL,KIPL,32.8342018,-115.579002,-54,-8,A,America/Los_Angeles
Immokalee Regional Airport,Immokalee,United States,IMM,KIMM,26.4332008,-81.401001,37,-5,A,America/New_York
Illinois Valley Regional Airport-Walter A Duncan Field,Peru,United States,VYS,KVYS,41.351898,-89.153099,654,-6,A,America/Chicago
Iliamna Airport,Iliamna,United States,ILI,PAIL,59.7543984,-154.910996,192,-9,A,America/Anchorage
Igor I Sikorsky Memorial Airport,Stratford,United States,BDR,KBDR,41.1635017,-73.1261978,9,-5,A,America/New_York
Igiugig Airport,Igiugig,United States,IGG,PAIG,59.3240013,-155.901993,90,-9,A,America/Anchorage
Idaho Falls Regional Airport,Idaho Falls,United States,IDA,KIDA,43.514599,-112.070999,4744,-7,A,America/Denver
Hyde County Airport,Engelhard,United States,\N,K7W6,35.5624008,-75.9552002,8,-5,A,America/New_York
Hydaburg Seaplane Base,Hydaburg,United States,HYG,PAHY,55.2062988,-132.828003,0,-9,A,America/Anchorage
Hutchinson Municipal Airport,Hutchinson,United States,HUT,KHUT,38.0654984,-97.8606033,1543,-6,A,America/Chicago
Hutchinson County Airport,Borger,United States,BGD,KBGD,35.700901,-101.393997,3055,-5,A,\N
Huslia Airport,Huslia,United States,HSL,PAHL,65.6978989,-156.350998,220,-9,A,America/Anchorage
Huron Regional Airport,Huron,United States,HON,KHON,44.3852005,-98.2285004,1289,-6,A,America/Chicago
Hurlburt Field,Mary Esther,United States,\N,KHRT,30.4277992,-86.6893005,38,-6,A,America/Chicago
Huntsville Regional Airport,Huntsville,United States,HTV,KUTS,30.7469006,-95.5871964,363,\N,\N,\N
Huntsville International Carl T Jones Field,Huntsville,United States,HSV,KHSV,34.6371994,-86.7751007,629,-6,A,America/Chicago
Hunter Army Air Field,Hunter Aaf,United States,SVN,KSVN,32.0099983,-81.1456986,41,-5,A,America/New_York
Hughes Airport,Hughes,United States,HUS,PAHU,66.0410996,-154.263001,299,-9,A,America/Anchorage
Houlton International Airport,Houlton,United States,HUL,KHUL,46.1231003,-67.792099,489,-5,A,America/New_York
Houghton County Memorial Airport,Hancock,United States,CMX,KCMX,47.1683998,-88.4890976,1095,-5,A,America/New_York
Horace Williams Airport,Chapel Hill,United States,\N,KIGX,35.935001,-79.065902,512,-5,A,\N
Hooper Bay Airport,Hooper Bay,United States,HPB,PAHP,61.5238991,-166.147003,13,-9,A,America/Anchorage
Hoonah Airport,Hoonah,United States,HNH,PAOH,58.0961,-135.410111,19,-9,A,America/Anchorage
Hood Army Air Field,Fort Hood,United States,HLR,KHLR,31.1387005,-97.7145004,924,-6,A,America/Chicago
Homey (Area 51) Airport,Groom Lake,United States,\N,KXTA,37.2350006,-115.810997,4462,\N,\N,\N
Homestead ARB Airport,Homestead,United States,HST,KHST,25.4885998,-80.3835983,5,-5,A,America/New_York
Homer Airport,Homer,United States,HOM,PAHO,59.6455994,-151.477005,84,-9,A,America/Anchorage
Holy Cross Airport,Holy Cross,United States,HCR,PAHC,62.1883011,-159.774994,70,-9,A,America/Anchorage
Holloman Air Force Base,Alamogordo,United States,HMN,KHMN,32.8525009,-106.107002,4093,-7,A,America/Denver
Hollister Municipal Airport,Hollister,United States,HLI,KCVH,36.8932991,-121.410004,230,-8,A,\N
Hobart Regional Airport,Hobart,United States,HBR,KHBR,34.991317,-99.051313,1563,-6,A,America/Chicago
Hilton Head Airport,Hilton Head Island,United States,HHH,KHXD,32.2243996,-80.6975021,19,-5,A,America/New_York
Hilo International Airport,Hilo,United States,ITO,PHTO,19.7213993,-155.048004,38,-10,N,Pacific/Honolulu
Hillsboro Municipal Airport,Hillsboro,United States,\N,KINJ,32.0834999,-97.0971985,686,-6,A,America/Chicago
Hill Air Force Base,Ogden,United States,HIF,KHIF,41.12403,-111.973086,4789,-7,A,America/Denver
Hickory Regional Airport,Hickory,United States,HKY,KHKY,35.7411003,-81.3895035,1190,-5,A,America/New_York
Henry Tift Myers Airport,Tifton,United States,TMA,KTMA,31.4290009,-83.4885025,355,-5,A,America/New_York
Henry Post Army Air Field (Fort Sill),Fort Sill,United States,FSI,KFSI,34.6497994,-98.4021988,1189,-6,A,America/Chicago
Henry County Airport,Hampton,United States,\N,K4A7,33.389099,-84.332397,874,-5,A,America/New_York
Henderson Oxford Airport,Oxford,United States,\N,KHNZ,36.361599,-78.5291977,526,-5,A,\N
Henderson Field,Wallace,United States,\N,KACZ,34.7178993,-78.0036011,39,-5,A,\N
Henderson Executive Airport,Henderson,United States,HSH,KHND,35.9728012,-115.134003,2492,-8,A,America/Los_Angeles
Helena Regional Airport,Helena,United States,HLN,KHLN,46.6068001,-111.983002,3877,-7,A,America/Denver
